[{"model": "users.city", "pk": 1, "fields": {"name": "Kathmandu", "findname": "KATHMANDU", "country": "NP", "lon": "85.316666", "lat": "27.716667"}}, {"model": "users.city", "pk": 2, "fields": {"name": "Merida", "findname": "MERIDA", "country": "VE", "lon": "-71.144997", "lat": "8.598333"}}, {"model": "users.city", "pk": 3, "fields": {"name": "Lhasa", "findname": "LHASA", "country": "CN", "lon": "91.099998", "lat": "29.65"}}, {"model": "users.city", "pk": 4, "fields": {"name": "İstanbul", "findname": "İSTANBUL", "country": "TR", "lon": "28.983311", "lat": "41.03508"}}, {"model": "users.city", "pk": 5, "fields": {"name": "Mao", "findname": "MAO", "country": "DO", "lon": "-71.078133", "lat": "19.551861"}}, {"model": "users.city", "pk": 6, "fields": {"name": "Nalchik", "findname": "NALCHIK", "country": "RU", "lon": "43.618889", "lat": "43.498058"}}, {"model": "users.city", "pk": 7, "fields": {"name": "Lisbon", "findname": "LISBON", "country": "PT", "lon": "-9.13333", "lat": "38.716671"}}, {"model": "users.city", "pk": 8, "fields": {"name": "Walbrzych", "findname": "WALBRZYCH", "country": "PL", "lon": "16.284321", "lat": "50.771412"}}, {"model": "users.city", "pk": 9, "fields": {"name": "Naklo nad Notecia", "findname": "NAKLO NAD NOTECIA", "country": "PL", "lon": "17.60181", "lat": "53.142139"}}, {"model": "users.city", "pk": 10, "fields": {"name": "Zhengzhou", "findname": "ZHENGZHOU", "country": "CN", "lon": "113.648613", "lat": "34.757778"}}, {"model": "users.city", "pk": 11, "fields": {"name": "Bankra", "findname": "BANKRA", "country": "IN", "lon": "88.298058", "lat": "22.627501"}}, {"model": "users.city", "pk": 12, "fields": {"name": "Whyalla", "findname": "WHYALLA", "country": "AU", "lon": "137.583328", "lat": "-33.033329"}}, {"model": "users.city", "pk": 13, "fields": {"name": "Gustavia", "findname": "GUSTAVIA", "country": "BL", "lon": "-62.849781", "lat": "17.896179"}}, {"model": "users.city", "pk": 14, "fields": {"name": "Xianju", "findname": "XIANJU", "country": "CN", "lon": "120.73333", "lat": "28.85"}}, {"model": "users.city", "pk": 15, "fields": {"name": "Tōkyō-to", "findname": "TōKYō-TO", "country": "JP", "lon": "139.691711", "lat": "35.689499"}}, {"model": "users.city", "pk": 16, "fields": {"name": "Washington", "findname": "WASHINGTON", "country": "US", "lon": "-120.501472", "lat": "47.500118"}}, {"model": "users.city", "pk": 17, "fields": {"name": "San Dimas", "findname": "SAN DIMAS", "country": "US", "lon": "-117.806732", "lat": "34.106682"}}, {"model": "users.city", "pk": 18, "fields": {"name": "Bandar Emām Khomeynī", "findname": "BANDAR EMāM KHOMEYNī", "country": "IR", "lon": "49.076279", "lat": "30.429831"}}, {"model": "users.city", "pk": 19, "fields": {"name": "Bo", "findname": "BO", "country": "SL", "lon": "-11.73833", "lat": "7.96472"}}, {"model": "users.city", "pk": 20, "fields": {"name": "San Pedro", "findname": "SAN PEDRO", "country": "AR", "lon": "-54.108421", "lat": "-26.62207"}}, {"model": "users.city", "pk": 21, "fields": {"name": "Telmankend", "findname": "TELMANKEND", "country": "AZ", "lon": "48.399021", "lat": "39.87867"}}, {"model": "users.city", "pk": 22, "fields": {"name": "Neftcala", "findname": "NEFTCALA", "country": "AZ", "lon": "49.247219", "lat": "39.374168"}}, {"model": "users.city", "pk": 23, "fields": {"name": "Pushkino", "findname": "PUSHKINO", "country": "AZ", "lon": "48.544998", "lat": "39.458328"}}, {"model": "users.city", "pk": 24, "fields": {"name": "Titao", "findname": "TITAO", "country": "BF", "lon": "-2.06667", "lat": "13.76667"}}, {"model": "users.city", "pk": 25, "fields": {"name": "Villazon", "findname": "VILLAZON", "country": "BO", "lon": "-65.594223", "lat": "-22.08659"}}, {"model": "users.city", "pk": 26, "fields": {"name": "Yangambi", "findname": "YANGAMBI", "country": "CD", "lon": "24.43359", "lat": "0.81021"}}, {"model": "users.city", "pk": 27, "fields": {"name": "Watsa", "findname": "WATSA", "country": "CD", "lon": "29.535509", "lat": "3.03716"}}, {"model": "users.city", "pk": 28, "fields": {"name": "Wamba", "findname": "WAMBA", "country": "CD", "lon": "27.994659", "lat": "2.14838"}}, {"model": "users.city", "pk": 29, "fields": {"name": "Lusambo", "findname": "LUSAMBO", "country": "CD", "lon": "23.450001", "lat": "-4.96667"}}, {"model": "users.city", "pk": 30, "fields": {"name": "Luebo", "findname": "LUEBO", "country": "CD", "lon": "21.41667", "lat": "-5.35"}}, {"model": "users.city", "pk": 31, "fields": {"name": "Lubao", "findname": "LUBAO", "country": "CD", "lon": "25.75", "lat": "-5.36667"}}, {"model": "users.city", "pk": 32, "fields": {"name": "Kampene", "findname": "KAMPENE", "country": "CD", "lon": "26.66667", "lat": "-3.6"}}, {"model": "users.city", "pk": 33, "fields": {"name": "Kabinda", "findname": "KABINDA", "country": "CD", "lon": "24.48333", "lat": "-6.13333"}}, {"model": "users.city", "pk": 34, "fields": {"name": "Kabare", "findname": "KABARE", "country": "CD", "lon": "28.824169", "lat": "-2.46833"}}, {"model": "users.city", "pk": 35, "fields": {"name": "Businga", "findname": "BUSINGA", "country": "CD", "lon": "20.883329", "lat": "3.33333"}}, {"model": "users.city", "pk": 36, "fields": {"name": "Nioki", "findname": "NIOKI", "country": "CD", "lon": "17.683331", "lat": "-2.71667"}}, {"model": "users.city", "pk": 37, "fields": {"name": "Mushie", "findname": "MUSHIE", "country": "CD", "lon": "16.9", "lat": "-3.01667"}}, {"model": "users.city", "pk": 38, "fields": {"name": "Mangai", "findname": "MANGAI", "country": "CD", "lon": "19.533331", "lat": "-4.05"}}, {"model": "users.city", "pk": 39, "fields": {"name": "Touba", "findname": "TOUBA", "country": "CI", "lon": "-7.68333", "lat": "8.28333"}}, {"model": "users.city", "pk": 40, "fields": {"name": "Tonga", "findname": "TONGA", "country": "CM", "lon": "10.7", "lat": "4.96667"}}, {"model": "users.city", "pk": 41, "fields": {"name": "Grossenhain", "findname": "GROSSENHAIN", "country": "DE", "lon": "13.55", "lat": "51.283329"}}, {"model": "users.city", "pk": 42, "fields": {"name": "el hed", "findname": "EL HED", "country": "DZ", "lon": "4.77361", "lat": "36.650002"}}, {"model": "users.city", "pk": 43, "fields": {"name": "Souma", "findname": "SOUMA", "country": "DZ", "lon": "2.90528", "lat": "36.51833"}}, {"model": "users.city", "pk": 44, "fields": {"name": "Rouached", "findname": "ROUACHED", "country": "DZ", "lon": "6.04267", "lat": "36.457741"}}, {"model": "users.city", "pk": 45, "fields": {"name": "Reggane", "findname": "REGGANE", "country": "DZ", "lon": "0.1714", "lat": "26.715759"}}, {"model": "users.city", "pk": 46, "fields": {"name": "Metlili Chaamba", "findname": "METLILI CHAAMBA", "country": "DZ", "lon": "3.63333", "lat": "32.26667"}}, {"model": "users.city", "pk": 47, "fields": {"name": "El Abiodh Sidi Cheikh", "findname": "EL ABIODH SIDI CHEIKH", "country": "DZ", "lon": "0.54839", "lat": "32.893002"}}, {"model": "users.city", "pk": 48, "fields": {"name": "Robit", "findname": "ROBIT", "country": "ET", "lon": "39.633331", "lat": "12.01667"}}, {"model": "users.city", "pk": 49, "fields": {"name": "Mekele", "findname": "MEKELE", "country": "ET", "lon": "39.475281", "lat": "13.49667"}}, {"model": "users.city", "pk": 50, "fields": {"name": "Kolito", "findname": "KOLITO", "country": "ET", "lon": "38.083328", "lat": "7.31667"}}, {"model": "users.city", "pk": 51, "fields": {"name": "Lambasa", "findname": "LAMBASA", "country": "FJ", "lon": "179.383331", "lat": "-16.41667"}}, {"model": "users.city", "pk": 52, "fields": {"name": "Cayenne", "findname": "CAYENNE", "country": "FR", "lon": "1.62803", "lat": "49.558578"}}, {"model": "users.city", "pk": 53, "fields": {"name": "Newtownards", "findname": "NEWTOWNARDS", "country": "GB", "lon": "-5.69092", "lat": "54.592361"}}, {"model": "users.city", "pk": 54, "fields": {"name": "Poti", "findname": "POTI", "country": "GE", "lon": "41.67197", "lat": "42.14616"}}, {"model": "users.city", "pk": 55, "fields": {"name": "Tafo", "findname": "TAFO", "country": "GH", "lon": "-1.61275", "lat": "6.73453"}}, {"model": "users.city", "pk": 56, "fields": {"name": "Shama Junction", "findname": "SHAMA JUNCTION", "country": "GH", "lon": "-1.63011", "lat": "5.00872"}}, {"model": "users.city", "pk": 57, "fields": {"name": "Saltpond", "findname": "SALTPOND", "country": "GH", "lon": "-1.06058", "lat": "5.20913"}}, {"model": "users.city", "pk": 58, "fields": {"name": "Dunkwa", "findname": "DUNKWA", "country": "GH", "lon": "-1.77995", "lat": "5.96562"}}, {"model": "users.city", "pk": 59, "fields": {"name": "Pita", "findname": "PITA", "country": "GN", "lon": "-12.4", "lat": "11.08333"}}, {"model": "users.city", "pk": 60, "fields": {"name": "Grytviken", "findname": "GRYTVIKEN", "country": "GS", "lon": "-36.509201", "lat": "-54.281109"}}, {"model": "users.city", "pk": 61, "fields": {"name": "Ti Port-de-Paix", "findname": "TI PORT-DE-PAIX", "country": "HT", "lon": "-72.833328", "lat": "19.933331"}}, {"model": "users.city", "pk": 62, "fields": {"name": "Tanjungbalai", "findname": "TANJUNGBALAI", "country": "ID", "lon": "99.800003", "lat": "2.96667"}}, {"model": "users.city", "pk": 63, "fields": {"name": "Reuleuet", "findname": "REULEUET", "country": "ID", "lon": "96.283333", "lat": "5.21667"}}, {"model": "users.city", "pk": 64, "fields": {"name": "Judieda Makr", "findname": "JUDIEDA MAKR", "country": "IL", "lon": "35.154999", "lat": "32.92556"}}, {"model": "users.city", "pk": 65, "fields": {"name": "Yeola", "findname": "YEOLA", "country": "IN", "lon": "74.48333", "lat": "20.033331"}}, {"model": "users.city", "pk": 66, "fields": {"name": "Yellapur", "findname": "YELLAPUR", "country": "IN", "lon": "74.716667", "lat": "14.96667"}}, {"model": "users.city", "pk": 67, "fields": {"name": "Yaval", "findname": "YAVAL", "country": "IN", "lon": "75.699997", "lat": "21.16667"}}, {"model": "users.city", "pk": 68, "fields": {"name": "Old Harbour", "findname": "OLD HARBOUR", "country": "JM", "lon": "-77.108978", "lat": "17.941441"}}, {"model": "users.city", "pk": 69, "fields": {"name": "New Kingston", "findname": "NEW KINGSTON", "country": "JM", "lon": "-76.783188", "lat": "18.007469"}}, {"model": "users.city", "pk": 70, "fields": {"name": "Mocimboa", "findname": "MOCIMBOA", "country": "MZ", "lon": "40.349998", "lat": "-11.31667"}}, {"model": "users.city", "pk": 71, "fields": {"name": "Tulsipur", "findname": "TULSIPUR", "country": "NP", "lon": "82.297256", "lat": "28.130989"}}, {"model": "users.city", "pk": 72, "fields": {"name": "Cambridge", "findname": "CAMBRIDGE", "country": "NZ", "lon": "175.440201", "lat": "-37.87822"}}, {"model": "users.city", "pk": 73, "fields": {"name": "Bidbid", "findname": "BIDBID", "country": "OM", "lon": "58.1283", "lat": "23.40786"}}, {"model": "users.city", "pk": 74, "fields": {"name": "Bawshar", "findname": "BAWSHAR", "country": "OM", "lon": "58.398899", "lat": "23.55563"}}, {"model": "users.city", "pk": 75, "fields": {"name": "Badiyah", "findname": "BADIYAH", "country": "OM", "lon": "58.799999", "lat": "22.450001"}}, {"model": "users.city", "pk": 76, "fields": {"name": "As Suwayq", "findname": "AS SUWAYQ", "country": "OM", "lon": "57.43861", "lat": "23.84944"}}, {"model": "users.city", "pk": 77, "fields": {"name": "Uchiza", "findname": "UCHIZA", "country": "PE", "lon": "-76.463333", "lat": "-8.45917"}}, {"model": "users.city", "pk": 78, "fields": {"name": "Aguadilla", "findname": "AGUADILLA", "country": "PR", "lon": "-67.154068", "lat": "18.42745"}}, {"model": "users.city", "pk": 79, "fields": {"name": "Safonovo", "findname": "SAFONOVO", "country": "RU", "lon": "33.216671", "lat": "55.150002"}}, {"model": "users.city", "pk": 80, "fields": {"name": "Koidu", "findname": "KOIDU", "country": "SL", "lon": "-10.83333", "lat": "8.41667"}}, {"model": "users.city", "pk": 81, "fields": {"name": "Prakhon Chai", "findname": "PRAKHON CHAI", "country": "TH", "lon": "103.120811", "lat": "14.60592"}}, {"model": "users.city", "pk": 82, "fields": {"name": "Kocaali", "findname": "KOCAALI", "country": "TR", "lon": "30.852779", "lat": "41.05336"}}, {"model": "users.city", "pk": 83, "fields": {"name": "Vwawa", "findname": "VWAWA", "country": "TZ", "lon": "32.933331", "lat": "-9.11667"}}, {"model": "users.city", "pk": 84, "fields": {"name": "Jamestown", "findname": "JAMESTOWN", "country": "US", "lon": "-79.235329", "lat": "42.097"}}, {"model": "users.city", "pk": 85, "fields": {"name": "Grand Junction", "findname": "GRAND JUNCTION", "country": "US", "lon": "-108.550652", "lat": "39.063869"}}, {"model": "users.city", "pk": 86, "fields": {"name": "Shofirkon", "findname": "SHOFIRKON", "country": "UZ", "lon": "64.501389", "lat": "40.119999"}}, {"model": "users.city", "pk": 87, "fields": {"name": "Qushkupir", "findname": "QUSHKUPIR", "country": "UZ", "lon": "60.345558", "lat": "41.535"}}, {"model": "users.city", "pk": 88, "fields": {"name": "Parkent", "findname": "PARKENT", "country": "UZ", "lon": "69.676392", "lat": "41.294441"}}, {"model": "users.city", "pk": 89, "fields": {"name": "Pop", "findname": "POP", "country": "UZ", "lon": "71.108887", "lat": "40.873611"}}, {"model": "users.city", "pk": 90, "fields": {"name": "Paxtakor", "findname": "PAXTAKOR", "country": "UZ", "lon": "67.954437", "lat": "40.315281"}}, {"model": "users.city", "pk": 91, "fields": {"name": "Novyy Turtkul", "findname": "NOVYY TURTKUL", "country": "UZ", "lon": "61.01667", "lat": "41.549999"}}, {"model": "users.city", "pk": 92, "fields": {"name": "Manghit", "findname": "MANGHIT", "country": "UZ", "lon": "60.059719", "lat": "42.115559"}}, {"model": "users.city", "pk": 93, "fields": {"name": "Haqqulobod", "findname": "HAQQULOBOD", "country": "UZ", "lon": "72.116669", "lat": "40.916672"}}, {"model": "users.city", "pk": 94, "fields": {"name": "Iskandar", "findname": "ISKANDAR", "country": "UZ", "lon": "69.700829", "lat": "41.55389"}}, {"model": "users.city", "pk": 95, "fields": {"name": "Hazorasp", "findname": "HAZORASP", "country": "UZ", "lon": "61.074169", "lat": "41.319439"}}, {"model": "users.city", "pk": 96, "fields": {"name": "Chinoz", "findname": "CHINOZ", "country": "UZ", "lon": "68.769722", "lat": "40.93639"}}, {"model": "users.city", "pk": 97, "fields": {"name": "Buka", "findname": "BUKA", "country": "UZ", "lon": "69.198608", "lat": "40.810829"}}, {"model": "users.city", "pk": 98, "fields": {"name": "Beruniy", "findname": "BERUNIY", "country": "UZ", "lon": "60.752499", "lat": "41.691109"}}, {"model": "users.city", "pk": 99, "fields": {"name": "Bektemir", "findname": "BEKTEMIR", "country": "UZ", "lon": "69.334167", "lat": "41.209721"}}, {"model": "users.city", "pk": 100, "fields": {"name": "Quva", "findname": "QUVA", "country": "UZ", "lon": "72.072922", "lat": "40.522041"}}, {"model": "users.city", "pk": 101, "fields": {"name": "Anaco", "findname": "ANACO", "country": "VE", "lon": "-64.472778", "lat": "9.43889"}}, {"model": "users.city", "pk": 102, "fields": {"name": "Palo Negro", "findname": "PALO NEGRO", "country": "VE", "lon": "-67.541939", "lat": "10.17389"}}, {"model": "users.city", "pk": 103, "fields": {"name": "Mucumpiz", "findname": "MUCUMPIZ", "country": "VE", "lon": "-71.133331", "lat": "8.41667"}}, {"model": "users.city", "pk": 104, "fields": {"name": "Los Rastrojos", "findname": "LOS RASTROJOS", "country": "VE", "lon": "-69.241661", "lat": "10.02588"}}, {"model": "users.city", "pk": 105, "fields": {"name": "Las Tejerias", "findname": "LAS TEJERIAS", "country": "VE", "lon": "-67.184723", "lat": "10.25237"}}, {"model": "users.city", "pk": 106, "fields": {"name": "Lagunillas", "findname": "LAGUNILLAS", "country": "VE", "lon": "-71.25946", "lat": "10.13008"}}, {"model": "users.city", "pk": 107, "fields": {"name": "El Limon", "findname": "EL LIMON", "country": "VE", "lon": "-67.632118", "lat": "10.30589"}}, {"model": "users.city", "pk": 108, "fields": {"name": "Tacarigua", "findname": "TACARIGUA", "country": "VE", "lon": "-67.919823", "lat": "10.08621"}}, {"model": "users.city", "pk": 109, "fields": {"name": "Viet Tri", "findname": "VIET TRI", "country": "VN", "lon": "105.430832", "lat": "21.301941"}}, {"model": "users.city", "pk": 110, "fields": {"name": "Albardon", "findname": "ALBARDON", "country": "AR", "lon": "-68.525558", "lat": "-31.43722"}}, {"model": "users.city", "pk": 111, "fields": {"name": "Buzovna", "findname": "BUZOVNA", "country": "AZ", "lon": "50.113899", "lat": "40.517891"}}, {"model": "users.city", "pk": 112, "fields": {"name": "Amirdzhan", "findname": "AMIRDZHAN", "country": "AZ", "lon": "49.983608", "lat": "40.426392"}}, {"model": "users.city", "pk": 113, "fields": {"name": "Satkhira", "findname": "SATKHIRA", "country": "BD", "lon": "89.099998", "lat": "22.716669"}}, {"model": "users.city", "pk": 114, "fields": {"name": "Garango", "findname": "GARANGO", "country": "BF", "lon": "-0.55056", "lat": "11.8"}}, {"model": "users.city", "pk": 115, "fields": {"name": "Muramvya", "findname": "MURAMVYA", "country": "BI", "lon": "29.607901", "lat": "-3.2682"}}, {"model": "users.city", "pk": 116, "fields": {"name": "Tchaourou", "findname": "TCHAOUROU", "country": "BJ", "lon": "2.59752", "lat": "8.88649"}}, {"model": "users.city", "pk": 117, "fields": {"name": "Bassila", "findname": "BASSILA", "country": "BJ", "lon": "1.6654", "lat": "9.00814"}}, {"model": "users.city", "pk": 118, "fields": {"name": "Viana", "findname": "VIANA", "country": "BR", "lon": "-45.003609", "lat": "-3.22028"}}, {"model": "users.city", "pk": 119, "fields": {"name": "Sao Joao dos Inhamuns", "findname": "SAO JOAO DOS INHAMUNS", "country": "BR", "lon": "-40.283329", "lat": "-6"}}, {"model": "users.city", "pk": 120, "fields": {"name": "Solanea", "findname": "SOLANEA", "country": "BR", "lon": "-35.540001", "lat": "-6.755"}}, {"model": "users.city", "pk": 121, "fields": {"name": "Sobradinho", "findname": "SOBRADINHO", "country": "BR", "lon": "-39.099998", "lat": "-12.83333"}}, {"model": "users.city", "pk": 122, "fields": {"name": "Bondo", "findname": "BONDO", "country": "CD", "lon": "23.686649", "lat": "3.81461"}}, {"model": "users.city", "pk": 123, "fields": {"name": "Ippy", "findname": "IPPY", "country": "CF", "lon": "21.22468", "lat": "6.26793"}}, {"model": "users.city", "pk": 124, "fields": {"name": "Puerto Quellon", "findname": "PUERTO QUELLON", "country": "CL", "lon": "-73.616669", "lat": "-43.116669"}}, {"model": "users.city", "pk": 125, "fields": {"name": "Nacimiento", "findname": "NACIMIENTO", "country": "CL", "lon": "-72.666672", "lat": "-37.5"}}, {"model": "users.city", "pk": 126, "fields": {"name": "Mbanga", "findname": "MBANGA", "country": "CM", "lon": "9.5671", "lat": "4.5016"}}, {"model": "users.city", "pk": 127, "fields": {"name": "Mamfe", "findname": "MAMFE", "country": "CM", "lon": "9.3123", "lat": "5.754"}}, {"model": "users.city", "pk": 128, "fields": {"name": "Ksar Chellala", "findname": "KSAR CHELLALA", "country": "DZ", "lon": "2.31889", "lat": "35.212219"}}, {"model": "users.city", "pk": 129, "fields": {"name": "Kerkera", "findname": "KERKERA", "country": "DZ", "lon": "6.58556", "lat": "36.929169"}}, {"model": "users.city", "pk": 130, "fields": {"name": "El Affroun", "findname": "EL AFFROUN", "country": "DZ", "lon": "2.62528", "lat": "36.4701"}}, {"model": "users.city", "pk": 131, "fields": {"name": "Al Qurayn", "findname": "AL QURAYN", "country": "EG", "lon": "31.73514", "lat": "30.61618"}}, {"model": "users.city", "pk": 132, "fields": {"name": "Al Ayyat", "findname": "AL AYYAT", "country": "EG", "lon": "31.2575", "lat": "29.61972"}}, {"model": "users.city", "pk": 133, "fields": {"name": "Abu al Matamir", "findname": "ABU AL MATAMIR", "country": "EG", "lon": "30.174379", "lat": "30.910179"}}, {"model": "users.city", "pk": 134, "fields": {"name": "Metahara", "findname": "METAHARA", "country": "ET", "lon": "39.916672", "lat": "8.9"}}, {"model": "users.city", "pk": 135, "fields": {"name": "Korem", "findname": "KOREM", "country": "ET", "lon": "39.522781", "lat": "12.50583"}}, {"model": "users.city", "pk": 136, "fields": {"name": "Giyon", "findname": "GIYON", "country": "ET", "lon": "37.98333", "lat": "8.53333"}}, {"model": "users.city", "pk": 137, "fields": {"name": "Gimbi", "findname": "GIMBI", "country": "ET", "lon": "35.833328", "lat": "9.16667"}}, {"model": "users.city", "pk": 138, "fields": {"name": "Genet", "findname": "GENET", "country": "ET", "lon": "38.5", "lat": "9.06667"}}, {"model": "users.city", "pk": 139, "fields": {"name": "Finote Selam", "findname": "FINOTE SELAM", "country": "ET", "lon": "37.26667", "lat": "10.7"}}, {"model": "users.city", "pk": 140, "fields": {"name": "Dodola", "findname": "DODOLA", "country": "ET", "lon": "39.183331", "lat": "6.98333"}}, {"model": "users.city", "pk": 141, "fields": {"name": "Butajira", "findname": "BUTAJIRA", "country": "ET", "lon": "38.366669", "lat": "8.11667"}}, {"model": "users.city", "pk": 142, "fields": {"name": "Asaita", "findname": "ASAITA", "country": "ET", "lon": "41.439442", "lat": "11.56361"}}, {"model": "users.city", "pk": 143, "fields": {"name": "Asasa", "findname": "ASASA", "country": "ET", "lon": "39.200001", "lat": "7.1"}}, {"model": "users.city", "pk": 144, "fields": {"name": "Areka", "findname": "AREKA", "country": "ET", "lon": "37.700001", "lat": "7.06667"}}, {"model": "users.city", "pk": 145, "fields": {"name": "Orvault", "findname": "ORVAULT", "country": "FR", "lon": "-1.6219", "lat": "47.27095"}}, {"model": "users.city", "pk": 146, "fields": {"name": "Tanjungtiram", "findname": "TANJUNGTIRAM", "country": "ID", "lon": "98.369904", "lat": "4.0613"}}, {"model": "users.city", "pk": 147, "fields": {"name": "Percut", "findname": "PERCUT", "country": "ID", "lon": "98.863998", "lat": "3.6253"}}, {"model": "users.city", "pk": 148, "fields": {"name": "Perbaungan", "findname": "PERBAUNGAN", "country": "ID", "lon": "98.956001", "lat": "3.5679"}}, {"model": "users.city", "pk": 149, "fields": {"name": "Labuhan Deli", "findname": "LABUHAN DELI", "country": "ID", "lon": "98.673798", "lat": "3.7278"}}, {"model": "users.city", "pk": 150, "fields": {"name": "Deli Tua", "findname": "DELI TUA", "country": "ID", "lon": "98.683899", "lat": "3.5078"}}, {"model": "users.city", "pk": 151, "fields": {"name": "Bireun", "findname": "BIREUN", "country": "ID", "lon": "96.700897", "lat": "5.203"}}, {"model": "users.city", "pk": 152, "fields": {"name": "Wiradesa", "findname": "WIRADESA", "country": "ID", "lon": "109.619003", "lat": "-6.8922"}}, {"model": "users.city", "pk": 153, "fields": {"name": "Weru", "findname": "WERU", "country": "ID", "lon": "108.5037", "lat": "-6.711"}}, {"model": "users.city", "pk": 154, "fields": {"name": "Welahan", "findname": "WELAHAN", "country": "ID", "lon": "110.716667", "lat": "-6.8"}}, {"model": "users.city", "pk": 155, "fields": {"name": "Wangon", "findname": "WANGON", "country": "ID", "lon": "109.053886", "lat": "-7.51611"}}, {"model": "users.city", "pk": 156, "fields": {"name": "Ungaran", "findname": "UNGARAN", "country": "ID", "lon": "110.404999", "lat": "-7.13972"}}, {"model": "users.city", "pk": 157, "fields": {"name": "Tulungagung", "findname": "TULUNGAGUNG", "country": "ID", "lon": "111.902496", "lat": "-8.0657"}}, {"model": "users.city", "pk": 158, "fields": {"name": "Tayu", "findname": "TAYU", "country": "ID", "lon": "111.051804", "lat": "-6.5397"}}, {"model": "users.city", "pk": 159, "fields": {"name": "Randudongkal", "findname": "RANDUDONGKAL", "country": "ID", "lon": "109.324303", "lat": "-7.0981"}}, {"model": "users.city", "pk": 160, "fields": {"name": "Plumbon", "findname": "PLUMBON", "country": "ID", "lon": "108.472778", "lat": "-6.705"}}, {"model": "users.city", "pk": 161, "fields": {"name": "Parung", "findname": "PARUNG", "country": "ID", "lon": "106.733063", "lat": "-6.42139"}}, {"model": "users.city", "pk": 162, "fields": {"name": "Panji", "findname": "PANJI", "country": "ID", "lon": "114.099541", "lat": "-7.72528"}}, {"model": "users.city", "pk": 163, "fields": {"name": "Pangkalanbuun", "findname": "PANGKALANBUUN", "country": "ID", "lon": "111.616669", "lat": "-2.68333"}}, {"model": "users.city", "pk": 164, "fields": {"name": "Pamulang", "findname": "PAMULANG", "country": "ID", "lon": "106.738327", "lat": "-6.34278"}}, {"model": "users.city", "pk": 165, "fields": {"name": "Pakisaji", "findname": "PAKISAJI", "country": "ID", "lon": "112.598099", "lat": "-8.0665"}}, {"model": "users.city", "pk": 166, "fields": {"name": "Lahat", "findname": "LAHAT", "country": "ID", "lon": "103.533333", "lat": "-3.8"}}, {"model": "users.city", "pk": 167, "fields": {"name": "Labuan", "findname": "LABUAN", "country": "ID", "lon": "105.830002", "lat": "-6.3784"}}, {"model": "users.city", "pk": 168, "fields": {"name": "Kutoarjo", "findname": "KUTOARJO", "country": "ID", "lon": "109.912781", "lat": "-7.71694"}}, {"model": "users.city", "pk": 169, "fields": {"name": "Kroya", "findname": "KROYA", "country": "ID", "lon": "109.246109", "lat": "-7.63306"}}, {"model": "users.city", "pk": 170, "fields": {"name": "Krian", "findname": "KRIAN", "country": "ID", "lon": "112.579201", "lat": "-7.4104"}}, {"model": "users.city", "pk": 171, "fields": {"name": "Klungkung", "findname": "KLUNGKUNG", "country": "ID", "lon": "115.400002", "lat": "-8.53333"}}, {"model": "users.city", "pk": 172, "fields": {"name": "Kijang", "findname": "KIJANG", "country": "ID", "lon": "104.633331", "lat": "0.9"}}, {"model": "users.city", "pk": 173, "fields": {"name": "Ketanggungan", "findname": "KETANGGUNGAN", "country": "ID", "lon": "108.890999", "lat": "-6.9383"}}, {"model": "users.city", "pk": 174, "fields": {"name": "Jekulo", "findname": "JEKULO", "country": "ID", "lon": "110.926201", "lat": "-6.8057"}}, {"model": "users.city", "pk": 175, "fields": {"name": "Godean", "findname": "GODEAN", "country": "ID", "lon": "110.293892", "lat": "-7.76972"}}, {"model": "users.city", "pk": 176, "fields": {"name": "Cimahi", "findname": "CIMAHI", "country": "ID", "lon": "107.542503", "lat": "-6.87222"}}, {"model": "users.city", "pk": 177, "fields": {"name": "Buduran", "findname": "BUDURAN", "country": "ID", "lon": "112.723396", "lat": "-7.4281"}}, {"model": "users.city", "pk": 178, "fields": {"name": "Bondowoso", "findname": "BONDOWOSO", "country": "ID", "lon": "113.821449", "lat": "-7.91346"}}, {"model": "users.city", "pk": 179, "fields": {"name": "Bojonegoro", "findname": "BOJONEGORO", "country": "ID", "lon": "111.881699", "lat": "-7.1502"}}, {"model": "users.city", "pk": 180, "fields": {"name": "Bima", "findname": "BIMA", "country": "ID", "lon": "118.716667", "lat": "-8.46667"}}, {"model": "users.city", "pk": 181, "fields": {"name": "Bangil", "findname": "BANGIL", "country": "ID", "lon": "112.818604", "lat": "-7.59939"}}, {"model": "users.city", "pk": 182, "fields": {"name": "Maghar", "findname": "MAGHAR", "country": "IL", "lon": "35.407028", "lat": "32.889839"}}, {"model": "users.city", "pk": 183, "fields": {"name": "Wokha", "findname": "WOKHA", "country": "IN", "lon": "94.26667", "lat": "26.1"}}, {"model": "users.city", "pk": 184, "fields": {"name": "Warora", "findname": "WARORA", "country": "IN", "lon": "79", "lat": "20.23333"}}, {"model": "users.city", "pk": 185, "fields": {"name": "Waraseoni", "findname": "WARASEONI", "country": "IN", "lon": "80.033333", "lat": "21.75"}}, {"model": "users.city", "pk": 186, "fields": {"name": "Wadi", "findname": "WADI", "country": "IN", "lon": "76.98333", "lat": "17.066669"}}, {"model": "users.city", "pk": 187, "fields": {"name": "Virarajendrapet", "findname": "VIRARAJENDRAPET", "country": "IN", "lon": "75.800003", "lat": "12.2"}}, {"model": "users.city", "pk": 188, "fields": {"name": "Virar", "findname": "VIRAR", "country": "IN", "lon": "72.800003", "lat": "19.466669"}}, {"model": "users.city", "pk": 189, "fields": {"name": "Vettaikkaranpudur", "findname": "VETTAIKKARANPUDUR", "country": "IN", "lon": "76.933327", "lat": "10.56667"}}, {"model": "users.city", "pk": 190, "fields": {"name": "Vedaraniyam", "findname": "VEDARANIYAM", "country": "IN", "lon": "79.849998", "lat": "10.36667"}}, {"model": "users.city", "pk": 191, "fields": {"name": "Vasudevanallur", "findname": "VASUDEVANALLUR", "country": "IN", "lon": "77.416672", "lat": "9.23333"}}, {"model": "users.city", "pk": 192, "fields": {"name": "Vadakku Valliyur", "findname": "VADAKKU VALLIYUR", "country": "IN", "lon": "77.650002", "lat": "8.38333"}}, {"model": "users.city", "pk": 193, "fields": {"name": "Usilampatti", "findname": "USILAMPATTI", "country": "IN", "lon": "77.800003", "lat": "9.96667"}}, {"model": "users.city", "pk": 194, "fields": {"name": "Uravakonda", "findname": "URAVAKONDA", "country": "IN", "lon": "77.26667", "lat": "14.95"}}, {"model": "users.city", "pk": 195, "fields": {"name": "Uran", "findname": "URAN", "country": "IN", "lon": "72.93972", "lat": "18.87694"}}, {"model": "users.city", "pk": 196, "fields": {"name": "Upleta", "findname": "UPLETA", "country": "IN", "lon": "70.283333", "lat": "21.73333"}}, {"model": "users.city", "pk": 197, "fields": {"name": "Uppal Kalan", "findname": "UPPAL KALAN", "country": "IN", "lon": "78.559113", "lat": "17.405769"}}, {"model": "users.city", "pk": 198, "fields": {"name": "Unnao", "findname": "UNNAO", "country": "IN", "lon": "80.5", "lat": "26.533331"}}, {"model": "users.city", "pk": 199, "fields": {"name": "Unjha", "findname": "UNJHA", "country": "IN", "lon": "72.400002", "lat": "23.799999"}}, {"model": "users.city", "pk": 200, "fields": {"name": "Un", "findname": "UN", "country": "IN", "lon": "71.76667", "lat": "23.883329"}}, {"model": "users.city", "pk": 201, "fields": {"name": "Umreth", "findname": "UMRETH", "country": "IN", "lon": "73.116669", "lat": "22.700001"}}, {"model": "users.city", "pk": 202, "fields": {"name": "Umred", "findname": "UMRED", "country": "IN", "lon": "79.333328", "lat": "20.85"}}, {"model": "users.city", "pk": 203, "fields": {"name": "Turaiyur", "findname": "TURAIYUR", "country": "IN", "lon": "78.616669", "lat": "11.16667"}}, {"model": "users.city", "pk": 204, "fields": {"name": "Todaraisingh", "findname": "TODARAISINGH", "country": "IN", "lon": "75.48333", "lat": "26.01667"}}, {"model": "users.city", "pk": 205, "fields": {"name": "Titlagarh", "findname": "TITLAGARH", "country": "IN", "lon": "83.150002", "lat": "20.299999"}}, {"model": "users.city", "pk": 206, "fields": {"name": "Tisaiyanvilai", "findname": "TISAIYANVILAI", "country": "IN", "lon": "77.883331", "lat": "8.33333"}}, {"model": "users.city", "pk": 207, "fields": {"name": "Tiruvalla", "findname": "TIRUVALLA", "country": "IN", "lon": "76.566673", "lat": "9.38333"}}, {"model": "users.city", "pk": 208, "fields": {"name": "Terdal", "findname": "TERDAL", "country": "IN", "lon": "75.050003", "lat": "16.5"}}, {"model": "users.city", "pk": 209, "fields": {"name": "Teonthar", "findname": "TEONTHAR", "country": "IN", "lon": "81.650002", "lat": "24.98333"}}, {"model": "users.city", "pk": 210, "fields": {"name": "Tekkali", "findname": "TEKKALI", "country": "IN", "lon": "84.23333", "lat": "18.616671"}}, {"model": "users.city", "pk": 211, "fields": {"name": "Tekari", "findname": "TEKARI", "country": "IN", "lon": "84.833328", "lat": "24.933331"}}, {"model": "users.city", "pk": 212, "fields": {"name": "Tarn Taran", "findname": "TARN TARAN", "country": "IN", "lon": "74.925278", "lat": "31.450001"}}, {"model": "users.city", "pk": 213, "fields": {"name": "Tarana", "findname": "TARANA", "country": "IN", "lon": "76.033333", "lat": "23.33333"}}, {"model": "users.city", "pk": 214, "fields": {"name": "Tanuku", "findname": "TANUKU", "country": "IN", "lon": "81.699997", "lat": "16.75"}}, {"model": "users.city", "pk": 215, "fields": {"name": "Tanakpur", "findname": "TANAKPUR", "country": "IN", "lon": "80.116669", "lat": "29.08333"}}, {"model": "users.city", "pk": 216, "fields": {"name": "Talwara", "findname": "TALWARA", "country": "IN", "lon": "75.866669", "lat": "31.94861"}}, {"model": "users.city", "pk": 217, "fields": {"name": "Taloda", "findname": "TALODA", "country": "IN", "lon": "74.216667", "lat": "21.566669"}}, {"model": "users.city", "pk": 218, "fields": {"name": "Taliparamba", "findname": "TALIPARAMBA", "country": "IN", "lon": "75.349998", "lat": "12.05"}}, {"model": "users.city", "pk": 219, "fields": {"name": "Taleigao", "findname": "TALEIGAO", "country": "IN", "lon": "73.800003", "lat": "15.46667"}}, {"model": "users.city", "pk": 220, "fields": {"name": "Taki", "findname": "TAKI", "country": "IN", "lon": "88.921387", "lat": "22.586109"}}, {"model": "users.city", "pk": 221, "fields": {"name": "Suriapet", "findname": "SURIAPET", "country": "IN", "lon": "79.616669", "lat": "17.15"}}, {"model": "users.city", "pk": 222, "fields": {"name": "Suluru", "findname": "SULURU", "country": "IN", "lon": "80.01667", "lat": "13.7"}}, {"model": "users.city", "pk": 223, "fields": {"name": "Sultanpur", "findname": "SULTANPUR", "country": "IN", "lon": "75.199722", "lat": "31.215281"}}, {"model": "users.city", "pk": 224, "fields": {"name": "Suket", "findname": "SUKET", "country": "IN", "lon": "76.033333", "lat": "24.65"}}, {"model": "users.city", "pk": 225, "fields": {"name": "Suar", "findname": "SUAR", "country": "IN", "lon": "79.050003", "lat": "29.033331"}}, {"model": "users.city", "pk": 226, "fields": {"name": "Srivaikuntam", "findname": "SRIVAIKUNTAM", "country": "IN", "lon": "77.933327", "lat": "8.61667"}}, {"model": "users.city", "pk": 227, "fields": {"name": "Srisailam", "findname": "SRISAILAM", "country": "IN", "lon": "78.866669", "lat": "16.08333"}}, {"model": "users.city", "pk": 228, "fields": {"name": "Sriramnagar", "findname": "SRIRAMNAGAR", "country": "IN", "lon": "78.25544", "lat": "17.26652"}}, {"model": "users.city", "pk": 229, "fields": {"name": "Sriperumbudur", "findname": "SRIPERUMBUDUR", "country": "IN", "lon": "79.948891", "lat": "12.96889"}}, {"model": "users.city", "pk": 230, "fields": {"name": "Sopur", "findname": "SOPUR", "country": "IN", "lon": "74.466667", "lat": "34.299999"}}, {"model": "users.city", "pk": 231, "fields": {"name": "Songadh", "findname": "SONGADH", "country": "IN", "lon": "73.566673", "lat": "21.16667"}}, {"model": "users.city", "pk": 232, "fields": {"name": "Sonari", "findname": "SONARI", "country": "IN", "lon": "95.033333", "lat": "27.066669"}}, {"model": "users.city", "pk": 233, "fields": {"name": "Sojat", "findname": "SOJAT", "country": "IN", "lon": "73.666672", "lat": "25.91667"}}, {"model": "users.city", "pk": 234, "fields": {"name": "Sohagpur", "findname": "SOHAGPUR", "country": "IN", "lon": "78.199997", "lat": "22.700001"}}, {"model": "users.city", "pk": 235, "fields": {"name": "Siwana", "findname": "SIWANA", "country": "IN", "lon": "72.416672", "lat": "25.633329"}}, {"model": "users.city", "pk": 236, "fields": {"name": "Siwan", "findname": "SIWAN", "country": "IN", "lon": "84.366669", "lat": "26.216669"}}, {"model": "users.city", "pk": 237, "fields": {"name": "Sitarganj", "findname": "SITARGANJ", "country": "IN", "lon": "79.699997", "lat": "28.933331"}}, {"model": "users.city", "pk": 238, "fields": {"name": "Siruguppa", "findname": "SIRUGUPPA", "country": "IN", "lon": "76.900002", "lat": "15.63333"}}, {"model": "users.city", "pk": 239, "fields": {"name": "Sirsilla", "findname": "SIRSILLA", "country": "IN", "lon": "78.833328", "lat": "18.383329"}}, {"model": "users.city", "pk": 240, "fields": {"name": "Singarayakonda", "findname": "SINGARAYAKONDA", "country": "IN", "lon": "80.033333", "lat": "15.25"}}, {"model": "users.city", "pk": 241, "fields": {"name": "Singanallur", "findname": "SINGANALLUR", "country": "IN", "lon": "77.01667", "lat": "11"}}, {"model": "users.city", "pk": 242, "fields": {"name": "Sikka", "findname": "SIKKA", "country": "IN", "lon": "69.833328", "lat": "22.433331"}}, {"model": "users.city", "pk": 243, "fields": {"name": "Sidhi", "findname": "SIDHI", "country": "IN", "lon": "81.883331", "lat": "24.41667"}}, {"model": "users.city", "pk": 244, "fields": {"name": "Sidhauli", "findname": "SIDHAULI", "country": "IN", "lon": "80.833328", "lat": "27.283331"}}, {"model": "users.city", "pk": 245, "fields": {"name": "Siddhapur", "findname": "SIDDHAPUR", "country": "IN", "lon": "72.383331", "lat": "23.91667"}}, {"model": "users.city", "pk": 246, "fields": {"name": "Shujalpur", "findname": "SHUJALPUR", "country": "IN", "lon": "76.716667", "lat": "23.4"}}, {"model": "users.city", "pk": 247, "fields": {"name": "Shiggaon", "findname": "SHIGGAON", "country": "IN", "lon": "75.23333", "lat": "15"}}, {"model": "users.city", "pk": 248, "fields": {"name": "Shertallai", "findname": "SHERTALLAI", "country": "IN", "lon": "76.333328", "lat": "9.7"}}, {"model": "users.city", "pk": 249, "fields": {"name": "Shahpur", "findname": "SHAHPUR", "country": "IN", "lon": "76.833328", "lat": "16.700001"}}, {"model": "users.city", "pk": 250, "fields": {"name": "Sehore", "findname": "SEHORE", "country": "IN", "lon": "77.083328", "lat": "23.200001"}}, {"model": "users.city", "pk": 251, "fields": {"name": "Secunderabad", "findname": "SECUNDERABAD", "country": "IN", "lon": "78.542633", "lat": "17.504271"}}, {"model": "users.city", "pk": 252, "fields": {"name": "Sayla", "findname": "SAYLA", "country": "IN", "lon": "71.466667", "lat": "22.549999"}}, {"model": "users.city", "pk": 253, "fields": {"name": "Savda", "findname": "SAVDA", "country": "IN", "lon": "75.883331", "lat": "21.15"}}, {"model": "users.city", "pk": 254, "fields": {"name": "Sathyamangalam", "findname": "SATHYAMANGALAM", "country": "IN", "lon": "77.25", "lat": "11.51667"}}, {"model": "users.city", "pk": 255, "fields": {"name": "Sarwar", "findname": "SARWAR", "country": "IN", "lon": "75", "lat": "26.066669"}}, {"model": "users.city", "pk": 256, "fields": {"name": "Sardulgarh", "findname": "SARDULGARH", "country": "IN", "lon": "75.25", "lat": "29.700001"}}, {"model": "users.city", "pk": 257, "fields": {"name": "Sardarshahr", "findname": "SARDARSHAHR", "country": "IN", "lon": "74.48333", "lat": "28.433331"}}, {"model": "users.city", "pk": 258, "fields": {"name": "Saoner", "findname": "SAONER", "country": "IN", "lon": "78.900002", "lat": "21.383329"}}, {"model": "users.city", "pk": 259, "fields": {"name": "Sangola", "findname": "SANGOLA", "country": "IN", "lon": "75.199997", "lat": "17.433331"}}, {"model": "users.city", "pk": 260, "fields": {"name": "Sangod", "findname": "SANGOD", "country": "IN", "lon": "76.283333", "lat": "24.91667"}}, {"model": "users.city", "pk": 261, "fields": {"name": "Sangaria", "findname": "SANGARIA", "country": "IN", "lon": "74.449997", "lat": "29.799999"}}, {"model": "users.city", "pk": 262, "fields": {"name": "Sandur", "findname": "SANDUR", "country": "IN", "lon": "76.550003", "lat": "15.1"}}, {"model": "users.city", "pk": 263, "fields": {"name": "Sanchor", "findname": "SANCHOR", "country": "IN", "lon": "71.772217", "lat": "24.75528"}}, {"model": "users.city", "pk": 264, "fields": {"name": "Sanawad", "findname": "SANAWAD", "country": "IN", "lon": "76.066673", "lat": "22.183331"}}, {"model": "users.city", "pk": 265, "fields": {"name": "Samdari", "findname": "SAMDARI", "country": "IN", "lon": "72.583328", "lat": "25.816669"}}, {"model": "users.city", "pk": 266, "fields": {"name": "Sambalpur", "findname": "SAMBALPUR", "country": "IN", "lon": "83.966667", "lat": "21.450001"}}, {"model": "users.city", "pk": 267, "fields": {"name": "Sakleshpur", "findname": "SAKLESHPUR", "country": "IN", "lon": "75.783333", "lat": "12.96667"}}, {"model": "users.city", "pk": 268, "fields": {"name": "Sainthia", "findname": "SAINTHIA", "country": "IN", "lon": "87.666672", "lat": "23.950001"}}, {"model": "users.city", "pk": 269, "fields": {"name": "Rusera", "findname": "RUSERA", "country": "IN", "lon": "86.033333", "lat": "25.75"}}, {"model": "users.city", "pk": 270, "fields": {"name": "Robertsganj", "findname": "ROBERTSGANJ", "country": "IN", "lon": "83.066673", "lat": "24.700001"}}, {"model": "users.city", "pk": 271, "fields": {"name": "Remuna", "findname": "REMUNA", "country": "IN", "lon": "86.872223", "lat": "21.52611"}}, {"model": "users.city", "pk": 272, "fields": {"name": "Rehli", "findname": "REHLI", "country": "IN", "lon": "79.083328", "lat": "23.633329"}}, {"model": "users.city", "pk": 273, "fields": {"name": "Raybag", "findname": "RAYBAG", "country": "IN", "lon": "74.783333", "lat": "16.48333"}}, {"model": "users.city", "pk": 274, "fields": {"name": "Raxaul", "findname": "RAXAUL", "country": "IN", "lon": "84.849998", "lat": "26.98333"}}, {"model": "users.city", "pk": 275, "fields": {"name": "Ratlam", "findname": "RATLAM", "country": "IN", "lon": "75.066673", "lat": "23.316669"}}, {"model": "users.city", "pk": 276, "fields": {"name": "Rasipuram", "findname": "RASIPURAM", "country": "IN", "lon": "78.166672", "lat": "11.46667"}}, {"model": "users.city", "pk": 277, "fields": {"name": "Rampura", "findname": "RAMPURA", "country": "IN", "lon": "75.23333", "lat": "30.25"}}, {"model": "users.city", "pk": 278, "fields": {"name": "Raisen", "findname": "RAISEN", "country": "IN", "lon": "77.800003", "lat": "23.33333"}}, {"model": "users.city", "pk": 279, "fields": {"name": "Raipur", "findname": "RAIPUR", "country": "IN", "lon": "78.099998", "lat": "30.316669"}}, {"model": "users.city", "pk": 280, "fields": {"name": "Pusad", "findname": "PUSAD", "country": "IN", "lon": "77.583328", "lat": "19.9"}}, {"model": "users.city", "pk": 281, "fields": {"name": "Punalur", "findname": "PUNALUR", "country": "IN", "lon": "76.933327", "lat": "9"}}, {"model": "users.city", "pk": 282, "fields": {"name": "Puliyangudi", "findname": "PULIYANGUDI", "country": "IN", "lon": "77.416672", "lat": "9.16667"}}, {"model": "users.city", "pk": 283, "fields": {"name": "Pithapuram", "findname": "PITHAPURAM", "country": "IN", "lon": "82.26667", "lat": "17.116671"}}, {"model": "users.city", "pk": 284, "fields": {"name": "Piriyapatna", "findname": "PIRIYAPATNA", "country": "IN", "lon": "76.099167", "lat": "12.33972"}}, {"model": "users.city", "pk": 285, "fields": {"name": "Pipri", "findname": "PIPRI", "country": "IN", "lon": "75.533333", "lat": "19.799999"}}, {"model": "users.city", "pk": 286, "fields": {"name": "Pipar", "findname": "PIPAR", "country": "IN", "lon": "73.537781", "lat": "26.385559"}}, {"model": "users.city", "pk": 287, "fields": {"name": "Pilani", "findname": "PILANI", "country": "IN", "lon": "75.604103", "lat": "28.368401"}}, {"model": "users.city", "pk": 288, "fields": {"name": "Pihani", "findname": "PIHANI", "country": "IN", "lon": "80.199997", "lat": "27.633329"}}, {"model": "users.city", "pk": 289, "fields": {"name": "Periyakulam", "findname": "PERIYAKULAM", "country": "IN", "lon": "77.550003", "lat": "10.11667"}}, {"model": "users.city", "pk": 290, "fields": {"name": "Pattukkottai", "findname": "PATTUKKOTTAI", "country": "IN", "lon": "79.316673", "lat": "10.43333"}}, {"model": "users.city", "pk": 291, "fields": {"name": "Patharia", "findname": "PATHARIA", "country": "IN", "lon": "79.199997", "lat": "23.9"}}, {"model": "users.city", "pk": 292, "fields": {"name": "Pathardi", "findname": "PATHARDI", "country": "IN", "lon": "75.183327", "lat": "19.16667"}}, {"model": "users.city", "pk": 293, "fields": {"name": "Pathalgaon", "findname": "PATHALGAON", "country": "IN", "lon": "83.466667", "lat": "22.566669"}}, {"model": "users.city", "pk": 294, "fields": {"name": "Patamundai", "findname": "PATAMUNDAI", "country": "IN", "lon": "86.566673", "lat": "20.566669"}}, {"model": "users.city", "pk": 295, "fields": {"name": "Paonta Sahib", "findname": "PAONTA SAHIB", "country": "IN", "lon": "77.616669", "lat": "30.450001"}}, {"model": "users.city", "pk": 296, "fields": {"name": "Pandua", "findname": "PANDUA", "country": "IN", "lon": "88.283333", "lat": "23.08333"}}, {"model": "users.city", "pk": 297, "fields": {"name": "Panagar", "findname": "PANAGAR", "country": "IN", "lon": "79.98333", "lat": "23.299999"}}, {"model": "users.city", "pk": 298, "fields": {"name": "Pali", "findname": "PALI", "country": "IN", "lon": "81.050003", "lat": "23.35"}}, {"model": "users.city", "pk": 299, "fields": {"name": "Osmanabad", "findname": "OSMANABAD", "country": "IN", "lon": "76.050003", "lat": "18.16667"}}, {"model": "users.city", "pk": 300, "fields": {"name": "Nuzvid", "findname": "NUZVID", "country": "IN", "lon": "80.849998", "lat": "16.783331"}}, {"model": "users.city", "pk": 301, "fields": {"name": "Nongstoin", "findname": "NONGSTOIN", "country": "IN", "lon": "91.26667", "lat": "25.51667"}}, {"model": "users.city", "pk": 302, "fields": {"name": "Neem ka Thana", "findname": "NEEM KA THANA", "country": "IN", "lon": "75.800003", "lat": "27.73333"}}, {"model": "users.city", "pk": 303, "fields": {"name": "Nimbahera", "findname": "NIMBAHERA", "country": "IN", "lon": "74.683327", "lat": "24.616671"}}, {"model": "users.city", "pk": 304, "fields": {"name": "Nelamangala", "findname": "NELAMANGALA", "country": "IN", "lon": "77.389999", "lat": "13.10222"}}, {"model": "users.city", "pk": 305, "fields": {"name": "Navalgund", "findname": "NAVALGUND", "country": "IN", "lon": "75.366669", "lat": "15.56667"}}, {"model": "users.city", "pk": 306, "fields": {"name": "Nattam", "findname": "NATTAM", "country": "IN", "lon": "78.23333", "lat": "10.23333"}}, {"model": "users.city", "pk": 307, "fields": {"name": "Anjarah", "findname": "ANJARAH", "country": "JO", "lon": "35.756531", "lat": "32.306301"}}, {"model": "users.city", "pk": 308, "fields": {"name": "Youkaichi", "findname": "YOUKAICHI", "country": "JP", "lon": "136.197678", "lat": "35.116261"}}, {"model": "users.city", "pk": 309, "fields": {"name": "Ushibuka", "findname": "USHIBUKA", "country": "JP", "lon": "130.022781", "lat": "32.190559"}}, {"model": "users.city", "pk": 310, "fields": {"name": "Suzaka", "findname": "SUZAKA", "country": "JP", "lon": "138.316666", "lat": "36.650002"}}, {"model": "users.city", "pk": 311, "fields": {"name": "Susaki", "findname": "SUSAKI", "country": "JP", "lon": "133.283325", "lat": "33.366669"}}, {"model": "users.city", "pk": 312, "fields": {"name": "Sueyoshi", "findname": "SUEYOSHI", "country": "JP", "lon": "131.016663", "lat": "31.65"}}, {"model": "users.city", "pk": 313, "fields": {"name": "Shinichi", "findname": "SHINICHI", "country": "JP", "lon": "133.266663", "lat": "34.549999"}}, {"model": "users.city", "pk": 314, "fields": {"name": "Ono", "findname": "ONO", "country": "JP", "lon": "132.266663", "lat": "34.283329"}}, {"model": "users.city", "pk": 315, "fields": {"name": "Hofu", "findname": "HOFU", "country": "JP", "lon": "131.566666", "lat": "34.049999"}}, {"model": "users.city", "pk": 316, "fields": {"name": "Haebaru", "findname": "HAEBARU", "country": "JP", "lon": "127.871941", "lat": "26.336941"}}, {"model": "users.city", "pk": 317, "fields": {"name": "Ongjin", "findname": "ONGJIN", "country": "KP", "lon": "125.361938", "lat": "37.934719"}}, {"model": "users.city", "pk": 318, "fields": {"name": "Kosan", "findname": "KOSAN", "country": "KP", "lon": "127.41806", "lat": "38.855831"}}, {"model": "users.city", "pk": 319, "fields": {"name": "Haeju", "findname": "HAEJU", "country": "KP", "lon": "125.714722", "lat": "38.040562"}}, {"model": "users.city", "pk": 320, "fields": {"name": "Neietsu", "findname": "NEIETSU", "country": "KR", "lon": "128.468216", "lat": "37.184471"}}, {"model": "users.city", "pk": 321, "fields": {"name": "Reiko", "findname": "REIKO", "country": "KR", "lon": "126.509438", "lat": "35.275002"}}, {"model": "users.city", "pk": 322, "fields": {"name": "Yeoju", "findname": "YEOJU", "country": "KR", "lon": "127.633888", "lat": "37.29583"}}, {"model": "users.city", "pk": 323, "fields": {"name": "Yanggu", "findname": "YANGGU", "country": "KR", "lon": "127.989441", "lat": "38.105831"}}, {"model": "users.city", "pk": 324, "fields": {"name": "Mungyeong", "findname": "MUNGYEONG", "country": "KR", "lon": "128.199463", "lat": "36.594582"}}, {"model": "users.city", "pk": 325, "fields": {"name": "Kurye", "findname": "KURYE", "country": "KR", "lon": "127.464439", "lat": "35.209438"}}, {"model": "users.city", "pk": 326, "fields": {"name": "Cheongsong gun", "findname": "CHEONGSONG GUN", "country": "KR", "lon": "129.057007", "lat": "36.43351"}}, {"model": "users.city", "pk": 327, "fields": {"name": "Chinchon", "findname": "CHINCHON", "country": "KR", "lon": "127.443329", "lat": "36.85667"}}, {"model": "users.city", "pk": 328, "fields": {"name": "Hwawon", "findname": "HWAWON", "country": "KR", "lon": "128.500824", "lat": "35.80167"}}, {"model": "users.city", "pk": 329, "fields": {"name": "Ar Riqqah", "findname": "AR RIQQAH", "country": "KW", "lon": "48.094719", "lat": "29.14583"}}, {"model": "users.city", "pk": 330, "fields": {"name": "Qulsary", "findname": "QULSARY", "country": "KZ", "lon": "54.019779", "lat": "46.953072"}}, {"model": "users.city", "pk": 331, "fields": {"name": "Balyqshy", "findname": "BALYQSHY", "country": "KZ", "lon": "51.866669", "lat": "47.066669"}}, {"model": "users.city", "pk": 332, "fields": {"name": "Lenger", "findname": "LENGER", "country": "KZ", "lon": "69.883926", "lat": "42.18301"}}, {"model": "users.city", "pk": 333, "fields": {"name": "Georgievka", "findname": "GEORGIEVKA", "country": "KZ", "lon": "81.576111", "lat": "49.33139"}}, {"model": "users.city", "pk": 334, "fields": {"name": "Matara", "findname": "MATARA", "country": "LK", "lon": "80.535278", "lat": "5.94851"}}, {"model": "users.city", "pk": 335, "fields": {"name": "Kalutara", "findname": "KALUTARA", "country": "LK", "lon": "79.959297", "lat": "6.5831"}}, {"model": "users.city", "pk": 336, "fields": {"name": "Voinjama", "findname": "VOINJAMA", "country": "LR", "lon": "-9.74778", "lat": "8.42194"}}, {"model": "users.city", "pk": 337, "fields": {"name": "Zaltan", "findname": "ZALTAN", "country": "LY", "lon": "11.86647", "lat": "32.94701"}}, {"model": "users.city", "pk": 338, "fields": {"name": "Zana", "findname": "ZANA", "country": "PE", "lon": "-79.584167", "lat": "-6.92222"}}, {"model": "users.city", "pk": 339, "fields": {"name": "Querecotillo", "findname": "QUERECOTILLO", "country": "PE", "lon": "-80.645561", "lat": "-4.83778"}}, {"model": "users.city", "pk": 340, "fields": {"name": "Picsi", "findname": "PICSI", "country": "PE", "lon": "-79.769722", "lat": "-6.71778"}}, {"model": "users.city", "pk": 341, "fields": {"name": "Paita", "findname": "PAITA", "country": "PE", "lon": "-81.114441", "lat": "-5.08917"}}, {"model": "users.city", "pk": 342, "fields": {"name": "Lambayeque", "findname": "LAMBAYEQUE", "country": "PE", "lon": "-79.906113", "lat": "-6.70111"}}, {"model": "users.city", "pk": 343, "fields": {"name": "Chepen", "findname": "CHEPEN", "country": "PE", "lon": "-79.449997", "lat": "-7.21667"}}, {"model": "users.city", "pk": 344, "fields": {"name": "Yunguyo", "findname": "YUNGUYO", "country": "PE", "lon": "-69.083328", "lat": "-16.25"}}, {"model": "users.city", "pk": 345, "fields": {"name": "Tambopata", "findname": "TAMBOPATA", "country": "PE", "lon": "-69.183327", "lat": "-12.73333"}}, {"model": "users.city", "pk": 346, "fields": {"name": "Mala", "findname": "MALA", "country": "PE", "lon": "-76.630829", "lat": "-12.65806"}}, {"model": "users.city", "pk": 347, "fields": {"name": "Ayaviri", "findname": "AYAVIRI", "country": "PE", "lon": "-70.58889", "lat": "-14.88639"}}, {"model": "users.city", "pk": 348, "fields": {"name": "Arawa", "findname": "ARAWA", "country": "PG", "lon": "155.536743", "lat": "-6.21319"}}, {"model": "users.city", "pk": 349, "fields": {"name": "Tanauan", "findname": "TANAUAN", "country": "PH", "lon": "121.14975", "lat": "14.08627"}}, {"model": "users.city", "pk": 350, "fields": {"name": "Talavera", "findname": "TALAVERA", "country": "PH", "lon": "120.919197", "lat": "15.5883"}}, {"model": "users.city", "pk": 351, "fields": {"name": "Talacogon", "findname": "TALACOGON", "country": "PH", "lon": "125.784172", "lat": "8.45611"}}, {"model": "users.city", "pk": 352, "fields": {"name": "Surallah", "findname": "SURALLAH", "country": "PH", "lon": "124.73333", "lat": "6.36667"}}, {"model": "users.city", "pk": 353, "fields": {"name": "Baguim do Monte", "findname": "BAGUIM DO MONTE", "country": "PT", "lon": "-8.54133", "lat": "41.19392"}}, {"model": "users.city", "pk": 354, "fields": {"name": "Glogovac", "findname": "GLOGOVAC", "country": "RS", "lon": "21.316389", "lat": "44.039719"}}, {"model": "users.city", "pk": 355, "fields": {"name": "Ar Rahad", "findname": "AR RAHAD", "country": "SD", "lon": "30.65", "lat": "12.71667"}}, {"model": "users.city", "pk": 356, "fields": {"name": "Oum Hadjer", "findname": "OUM HADJER", "country": "TD", "lon": "19.6966", "lat": "13.2954"}}, {"model": "users.city", "pk": 357, "fields": {"name": "Moussoro", "findname": "MOUSSORO", "country": "TD", "lon": "16.49007", "lat": "13.64084"}}, {"model": "users.city", "pk": 358, "fields": {"name": "Saint Petersburg", "findname": "SAINT PETERSBURG", "country": "RU", "lon": "30.264168", "lat": "59.894444"}}, {"model": "users.city", "pk": 359, "fields": {"name": "London", "findname": "LONDON", "country": "GB", "lon": "-0.12574", "lat": "51.50853"}}, {"model": "users.city", "pk": 360, "fields": {"name": "Yevpatoriya", "findname": "YEVPATORIYA", "country": "UA", "lon": "33.355831", "lat": "45.197224"}}, {"model": "users.city", "pk": 361, "fields": {"name": "Kryvyy Rih", "findname": "KRYVYY RIH", "country": "UA", "lon": "33.349998", "lat": "47.916668"}}, {"model": "users.city", "pk": 362, "fields": {"name": "Staryy Oskol", "findname": "STARYY OSKOL", "country": "RU", "lon": "37.841667", "lat": "51.296665"}}, {"model": "users.city", "pk": 363, "fields": {"name": "Coffs Harbour", "findname": "COFFS HARBOUR", "country": "AU", "lon": "153.133331", "lat": "-30.299999"}}, {"model": "users.city", "pk": 364, "fields": {"name": "Pune", "findname": "PUNE", "country": "IN", "lon": "73.855347", "lat": "18.519569"}}, {"model": "users.city", "pk": 365, "fields": {"name": "Salzburg", "findname": "SALZBURG", "country": "AT", "lon": "13.04399", "lat": "47.799412"}}, {"model": "users.city", "pk": 366, "fields": {"name": "Cancun", "findname": "CANCUN", "country": "MX", "lon": "-86.846558", "lat": "21.17429"}}, {"model": "users.city", "pk": 367, "fields": {"name": "Pristina", "findname": "PRISTINA", "country": "XK", "lon": "21.16688", "lat": "42.672722"}}, {"model": "users.city", "pk": 368, "fields": {"name": "Ningde", "findname": "NINGDE", "country": "CN", "lon": "119.522781", "lat": "26.661671"}}, {"model": "users.city", "pk": 369, "fields": {"name": "Daxing", "findname": "DAXING", "country": "CN", "lon": "116.32917", "lat": "39.72139"}}, {"model": "users.city", "pk": 370, "fields": {"name": "Venezia", "findname": "VENEZIA", "country": "IT", "lon": "12.32667", "lat": "45.43861"}}, {"model": "users.city", "pk": 371, "fields": {"name": "Grande Prairie", "findname": "GRANDE PRAIRIE", "country": "CA", "lon": "-118.802711", "lat": "55.166672"}}, {"model": "users.city", "pk": 372, "fields": {"name": "Kassel", "findname": "KASSEL", "country": "DE", "lon": "9.5", "lat": "51.316669"}}, {"model": "users.city", "pk": 373, "fields": {"name": "Saarbrucken", "findname": "SAARBRUCKEN", "country": "DE", "lon": "7", "lat": "49.23333"}}, {"model": "users.city", "pk": 374, "fields": {"name": "Alcoy", "findname": "ALCOY", "country": "ES", "lon": "-0.47432", "lat": "38.705448"}}, {"model": "users.city", "pk": 375, "fields": {"name": "Geneve", "findname": "GENEVE", "country": "CH", "lon": "6.14569", "lat": "46.202221"}}, {"model": "users.city", "pk": 376, "fields": {"name": "Wroclaw", "findname": "WROCLAW", "country": "PL", "lon": "17.033331", "lat": "51.099998"}}, {"model": "users.city", "pk": 377, "fields": {"name": "Tallinn", "findname": "TALLINN", "country": "EE", "lon": "24.753531", "lat": "59.436958"}}, {"model": "users.city", "pk": 378, "fields": {"name": "Mississauga", "findname": "MISSISSAUGA", "country": "CA", "lon": "-79.658302", "lat": "43.578899"}}, {"model": "users.city", "pk": 379, "fields": {"name": "Birmingham", "findname": "BIRMINGHAM", "country": "GB", "lon": "-1.89983", "lat": "52.481419"}}, {"model": "users.city", "pk": 380, "fields": {"name": "New York", "findname": "NEW YORK", "country": "US", "lon": "-75.499901", "lat": "43.000351"}}, {"model": "users.city", "pk": 381, "fields": {"name": "Svetlogorsk", "findname": "SVETLOGORSK", "country": "BY", "lon": "29.733333", "lat": "52.633333"}}, {"model": "users.city", "pk": 382, "fields": {"name": "City of Cape Canaveral", "findname": "CITY OF CAPE CANAVERAL", "country": "US", "lon": "-80.60567", "lat": "28.39367"}}, {"model": "users.city", "pk": 383, "fields": {"name": "Cuauhtemoc", "findname": "CUAUHTEMOC", "country": "MX", "lon": "-99.156937", "lat": "19.417219"}}, {"model": "users.city", "pk": 384, "fields": {"name": "Mentougou", "findname": "MENTOUGOU", "country": "CN", "lon": "116.091667", "lat": "39.939171"}}, {"model": "users.city", "pk": 385, "fields": {"name": "Bochum", "findname": "BOCHUM", "country": "DE", "lon": "7.21667", "lat": "51.48333"}}, {"model": "users.city", "pk": 386, "fields": {"name": "Giugliano in Campania", "findname": "GIUGLIANO IN CAMPANIA", "country": "IT", "lon": "14.19103", "lat": "40.92741"}}, {"model": "users.city", "pk": 387, "fields": {"name": "Reutov", "findname": "REUTOV", "country": "RU", "lon": "37.861668", "lat": "55.759445"}}, {"model": "users.city", "pk": 388, "fields": {"name": "Kurovskoye", "findname": "KUROVSKOYE", "country": "RU", "lon": "38.910831", "lat": "55.578335"}}, {"model": "users.city", "pk": 389, "fields": {"name": "Golitsyno", "findname": "GOLITSYNO", "country": "RU", "lon": "36.983334", "lat": "55.612221"}}, {"model": "users.city", "pk": 390, "fields": {"name": "Durango", "findname": "DURANGO", "country": "US", "lon": "-107.880074", "lat": "37.27528"}}, {"model": "users.city", "pk": 391, "fields": {"name": "Liberal", "findname": "LIBERAL", "country": "US", "lon": "-100.920998", "lat": "37.043079"}}, {"model": "users.city", "pk": 392, "fields": {"name": "Mesquite", "findname": "MESQUITE", "country": "US", "lon": "-114.067192", "lat": "36.805531"}}, {"model": "users.city", "pk": 393, "fields": {"name": "Casper", "findname": "CASPER", "country": "US", "lon": "-106.31308", "lat": "42.866631"}}, {"model": "users.city", "pk": 394, "fields": {"name": "Young", "findname": "YOUNG", "country": "UY", "lon": "-57.633331", "lat": "-32.683331"}}, {"model": "users.city", "pk": 395, "fields": {"name": "Treinta y Tres", "findname": "TREINTA Y TRES", "country": "UY", "lon": "-54.383331", "lat": "-33.23333"}}, {"model": "users.city", "pk": 396, "fields": {"name": "La Paz", "findname": "LA PAZ", "country": "UY", "lon": "-56.22361", "lat": "-34.761669"}}, {"model": "users.city", "pk": 397, "fields": {"name": "Delta del Tigre", "findname": "DELTA DEL TIGRE", "country": "UY", "lon": "-56.385281", "lat": "-34.763329"}}, {"model": "users.city", "pk": 398, "fields": {"name": "Oltinkol", "findname": "OLTINKOL", "country": "UZ", "lon": "58.903721", "lat": "43.068741"}}, {"model": "users.city", "pk": 399, "fields": {"name": "Zomin", "findname": "ZOMIN", "country": "UZ", "lon": "68.395828", "lat": "39.96056"}}, {"model": "users.city", "pk": 400, "fields": {"name": "Shorchi", "findname": "SHORCHI", "country": "UZ", "lon": "67.787498", "lat": "37.999439"}}, {"model": "users.city", "pk": 401, "fields": {"name": "Kitob", "findname": "KITOB", "country": "UZ", "lon": "66.833183", "lat": "39.084251"}}, {"model": "users.city", "pk": 402, "fields": {"name": "Juma", "findname": "JUMA", "country": "UZ", "lon": "66.664169", "lat": "39.71611"}}, {"model": "users.city", "pk": 403, "fields": {"name": "Chiroqchi", "findname": "CHIROQCHI", "country": "UZ", "lon": "66.57222", "lat": "39.033611"}}, {"model": "users.city", "pk": 404, "fields": {"name": "Chelak", "findname": "CHELAK", "country": "UZ", "lon": "66.861107", "lat": "39.92028"}}, {"model": "users.city", "pk": 405, "fields": {"name": "Bulungur", "findname": "BULUNGUR", "country": "UZ", "lon": "67.271393", "lat": "39.764721"}}, {"model": "users.city", "pk": 406, "fields": {"name": "Beshkent", "findname": "BESHKENT", "country": "UZ", "lon": "65.653061", "lat": "38.821388"}}, {"model": "users.city", "pk": 407, "fields": {"name": "Boysun", "findname": "BOYSUN", "country": "UZ", "lon": "67.198608", "lat": "38.206108"}}, {"model": "users.city", "pk": 408, "fields": {"name": "Oqtosh", "findname": "OQTOSH", "country": "UZ", "lon": "65.925278", "lat": "39.921391"}}, {"model": "users.city", "pk": 409, "fields": {"name": "Zafar", "findname": "ZAFAR", "country": "UZ", "lon": "68.900002", "lat": "40.98333"}}, {"model": "users.city", "pk": 410, "fields": {"name": "Yangirabot", "findname": "YANGIRABOT", "country": "UZ", "lon": "65.960953", "lat": "40.025391"}}, {"model": "users.city", "pk": 411, "fields": {"name": "Yangiqorgon", "findname": "YANGIQORGON", "country": "UZ", "lon": "71.73333", "lat": "41.187222"}}, {"model": "users.city", "pk": 412, "fields": {"name": "Dashtobod", "findname": "DASHTOBOD", "country": "UZ", "lon": "68.494438", "lat": "40.126942"}}, {"model": "users.city", "pk": 413, "fields": {"name": "Tuytepa", "findname": "TUYTEPA", "country": "UZ", "lon": "69.362534", "lat": "41.032101"}}, {"model": "users.city", "pk": 414, "fields": {"name": "Turagurghon", "findname": "TURAGURGHON", "country": "UZ", "lon": "71.51162", "lat": "40.99984"}}, {"model": "users.city", "pk": 415, "fields": {"name": "Toshbuloq", "findname": "TOSHBULOQ", "country": "UZ", "lon": "71.572144", "lat": "40.923389"}}, {"model": "users.city", "pk": 416, "fields": {"name": "Showot", "findname": "SHOWOT", "country": "UZ", "lon": "60.302502", "lat": "41.65583"}}, {"model": "users.city", "pk": 417, "fields": {"name": "Salor", "findname": "SALOR", "country": "UZ", "lon": "69.381668", "lat": "41.372219"}}, {"model": "users.city", "pk": 418, "fields": {"name": "Kosonsoy", "findname": "KOSONSOY", "country": "UZ", "lon": "71.550827", "lat": "41.256111"}}, {"model": "users.city", "pk": 419, "fields": {"name": "Gagarin", "findname": "GAGARIN", "country": "UZ", "lon": "68.172218", "lat": "40.661942"}}, {"model": "users.city", "pk": 420, "fields": {"name": "Dustlik", "findname": "DUSTLIK", "country": "UZ", "lon": "68.035828", "lat": "40.524719"}}, {"model": "users.city", "pk": 421, "fields": {"name": "Kingstown Park", "findname": "KINGSTOWN PARK", "country": "VC", "lon": "-61.235001", "lat": "13.15833"}}, {"model": "users.city", "pk": 422, "fields": {"name": "Turmero", "findname": "TURMERO", "country": "VE", "lon": "-67.472878", "lat": "10.22388"}}, {"model": "users.city", "pk": 423, "fields": {"name": "Uong Bi", "findname": "UONG BI", "country": "VN", "lon": "106.783333", "lat": "21.033331"}}, {"model": "users.city", "pk": 424, "fields": {"name": "Lagi", "findname": "LAGI", "country": "VN", "lon": "107.783333", "lat": "10.66667"}}, {"model": "users.city", "pk": 425, "fields": {"name": "Queensdale", "findname": "QUEENSDALE", "country": "ZA", "lon": "26.978621", "lat": "-31.87101"}}, {"model": "users.city", "pk": 426, "fields": {"name": "Mondlo", "findname": "MONDLO", "country": "ZA", "lon": "30.71769", "lat": "-27.98299"}}, {"model": "users.city", "pk": 427, "fields": {"name": "Lady Frere", "findname": "LADY FRERE", "country": "ZA", "lon": "27.232901", "lat": "-31.703119"}}, {"model": "users.city", "pk": 428, "fields": {"name": "Ellisras", "findname": "ELLISRAS", "country": "ZA", "lon": "27.744261", "lat": "-23.6649"}}, {"model": "users.city", "pk": 429, "fields": {"name": "Cradock", "findname": "CRADOCK", "country": "ZA", "lon": "25.619181", "lat": "-32.164219"}}, {"model": "users.city", "pk": 430, "fields": {"name": "Monze", "findname": "MONZE", "country": "ZM", "lon": "27.48333", "lat": "-16.283331"}}, {"model": "users.city", "pk": 431, "fields": {"name": "Kansanshi", "findname": "KANSANSHI", "country": "ZM", "lon": "26.427271", "lat": "-12.09514"}}, {"model": "users.city", "pk": 432, "fields": {"name": "Gokwe", "findname": "GOKWE", "country": "ZW", "lon": "28.9349", "lat": "-18.20476"}}, {"model": "users.city", "pk": 433, "fields": {"name": "Srandakan", "findname": "SRANDAKAN", "country": "ID", "lon": "110.250557", "lat": "-7.93861"}}, {"model": "users.city", "pk": 434, "fields": {"name": "Sragen", "findname": "SRAGEN", "country": "ID", "lon": "111.022217", "lat": "-7.42639"}}, {"model": "users.city", "pk": 435, "fields": {"name": "Soreang", "findname": "SOREANG", "country": "ID", "lon": "107.518333", "lat": "-7.03306"}}, {"model": "users.city", "pk": 436, "fields": {"name": "Delhi", "findname": "DELHI", "country": "IN", "lon": "77.216667", "lat": "28.666668"}}, {"model": "users.city", "pk": 437, "fields": {"name": "Petrozavodsk", "findname": "PETROZAVODSK", "country": "RU", "lon": "34.346909", "lat": "61.784912"}}, {"model": "users.city", "pk": 438, "fields": {"name": "Klimovsk", "findname": "KLIMOVSK", "country": "RU", "lon": "37.525002", "lat": "55.364723"}}, {"model": "users.city", "pk": 439, "fields": {"name": "Kiraoli", "findname": "KIRAOLI", "country": "IN", "lon": "77.783333", "lat": "27.15"}}, {"model": "users.city", "pk": 440, "fields": {"name": "Sharya", "findname": "SHARYA", "country": "RU", "lon": "45.514442", "lat": "58.36861"}}, {"model": "users.city", "pk": 441, "fields": {"name": "Smolensk", "findname": "SMOLENSK", "country": "RU", "lon": "32.040001", "lat": "54.781666"}}, {"model": "users.city", "pk": 442, "fields": {"name": "Adler", "findname": "ADLER", "country": "RU", "lon": "39.919998", "lat": "43.43"}}, {"model": "users.city", "pk": 443, "fields": {"name": "Vyazemskiy", "findname": "VYAZEMSKIY", "country": "RU", "lon": "134.752502", "lat": "47.537777"}}, {"model": "users.city", "pk": 444, "fields": {"name": "Voronezh", "findname": "VORONEZH", "country": "RU", "lon": "39.169998", "lat": "51.666389"}}, {"model": "users.city", "pk": 445, "fields": {"name": "Riga", "findname": "RIGA", "country": "LV", "lon": "24.1", "lat": "56.950001"}}, {"model": "users.city", "pk": 446, "fields": {"name": "Orel", "findname": "OREL", "country": "RU", "lon": "36.080276", "lat": "52.965832"}}, {"model": "users.city", "pk": 447, "fields": {"name": "Isawa", "findname": "ISAWA", "country": "JP", "lon": "138.633331", "lat": "35.650002"}}, {"model": "users.city", "pk": 448, "fields": {"name": "Tulun", "findname": "TULUN", "country": "RU", "lon": "100.57917", "lat": "54.561111"}}, {"model": "users.city", "pk": 449, "fields": {"name": "Zaysan", "findname": "ZAYSAN", "country": "KZ", "lon": "84.866669", "lat": "47.466671"}}, {"model": "users.city", "pk": 450, "fields": {"name": "Piraquara", "findname": "PIRAQUARA", "country": "BR", "lon": "-49.063332", "lat": "-25.441669"}}, {"model": "users.city", "pk": 451, "fields": {"name": "Alice Springs", "findname": "ALICE SPRINGS", "country": "AU", "lon": "133.883331", "lat": "-23.700001"}}, {"model": "users.city", "pk": 452, "fields": {"name": "Mount Isa", "findname": "MOUNT ISA", "country": "AU", "lon": "139.5", "lat": "-20.73333"}}, {"model": "users.city", "pk": 453, "fields": {"name": "Mollendo", "findname": "MOLLENDO", "country": "PE", "lon": "-72.014717", "lat": "-17.02306"}}, {"model": "users.city", "pk": 454, "fields": {"name": "Polur", "findname": "POLUR", "country": "IN", "lon": "79.133331", "lat": "12.5"}}, {"model": "users.city", "pk": 455, "fields": {"name": "Kanakapura", "findname": "KANAKAPURA", "country": "IN", "lon": "77.416672", "lat": "12.55"}}, {"model": "users.city", "pk": 456, "fields": {"name": "Bangkok", "findname": "BANGKOK", "country": "TH", "lon": "100.51667", "lat": "13.75"}}, {"model": "users.city", "pk": 457, "fields": {"name": "Pak Chong", "findname": "PAK CHONG", "country": "TH", "lon": "101.416138", "lat": "14.70802"}}, {"model": "users.city", "pk": 458, "fields": {"name": "Sadabad", "findname": "SADABAD", "country": "IN", "lon": "78.050003", "lat": "27.450001"}}, {"model": "users.city", "pk": 459, "fields": {"name": "Xiaolingwei", "findname": "XIAOLINGWEI", "country": "CN", "lon": "118.849998", "lat": "32.033329"}}, {"model": "users.city", "pk": 460, "fields": {"name": "Peshawar", "findname": "PESHAWAR", "country": "PK", "lon": "71.578491", "lat": "34.007999"}}, {"model": "users.city", "pk": 461, "fields": {"name": "Ono", "findname": "ONO", "country": "JP", "lon": "136.487274", "lat": "35.98106"}}, {"model": "users.city", "pk": 462, "fields": {"name": "Puertollano", "findname": "PUERTOLLANO", "country": "ES", "lon": "-4.10734", "lat": "38.687119"}}, {"model": "users.city", "pk": 463, "fields": {"name": "Kozani", "findname": "KOZANI", "country": "GR", "lon": "21.78639", "lat": "40.301109"}}, {"model": "users.city", "pk": 464, "fields": {"name": "Potenza", "findname": "POTENZA", "country": "IT", "lon": "15.80857", "lat": "40.644321"}}, {"model": "users.city", "pk": 465, "fields": {"name": "Komotini", "findname": "KOMOTINI", "country": "GR", "lon": "25.396391", "lat": "41.12278"}}, {"model": "users.city", "pk": 466, "fields": {"name": "Sant Adria de Besos", "findname": "SANT ADRIA DE BESOS", "country": "ES", "lon": "2.21855", "lat": "41.430729"}}, {"model": "users.city", "pk": 467, "fields": {"name": "Foggia", "findname": "FOGGIA", "country": "IT", "lon": "15.54925", "lat": "41.46093"}}, {"model": "users.city", "pk": 468, "fields": {"name": "Sibiu", "findname": "SIBIU", "country": "RO", "lon": "24.15", "lat": "45.799999"}}, {"model": "users.city", "pk": 469, "fields": {"name": "Shipley", "findname": "SHIPLEY", "country": "GB", "lon": "-1.76667", "lat": "53.833328"}}, {"model": "users.city", "pk": 470, "fields": {"name": "Mragowo", "findname": "MRAGOWO", "country": "PL", "lon": "21.305071", "lat": "53.864368"}}, {"model": "users.city", "pk": 471, "fields": {"name": "Saransk", "findname": "SARANSK", "country": "RU", "lon": "45.1749", "lat": "54.1838"}}, {"model": "users.city", "pk": 472, "fields": {"name": "Dartmouth", "findname": "DARTMOUTH", "country": "CA", "lon": "-63.57719", "lat": "44.671341"}}, {"model": "users.city", "pk": 473, "fields": {"name": "Zamboanga", "findname": "ZAMBOANGA", "country": "PH", "lon": "122.073891", "lat": "6.91028"}}, {"model": "users.city", "pk": 474, "fields": {"name": "Nakhon Si Thammarat", "findname": "NAKHON SI THAMMARAT", "country": "TH", "lon": "99.966667", "lat": "8.43333"}}, {"model": "users.city", "pk": 475, "fields": {"name": "Kindia", "findname": "KINDIA", "country": "GN", "lon": "-12.86576", "lat": "10.05692"}}, {"model": "users.city", "pk": 476, "fields": {"name": "Cebu City", "findname": "CEBU CITY", "country": "PH", "lon": "123.890709", "lat": "10.31672"}}, {"model": "users.city", "pk": 477, "fields": {"name": "Kousseri", "findname": "KOUSSERI", "country": "CM", "lon": "15.03063", "lat": "12.07689"}}, {"model": "users.city", "pk": 478, "fields": {"name": "Santa Marta", "findname": "SANTA MARTA", "country": "CO", "lon": "-74.199043", "lat": "11.24079"}}, {"model": "users.city", "pk": 479, "fields": {"name": "Ryugasaki", "findname": "RYUGASAKI", "country": "JP", "lon": "140.183334", "lat": "35.900002"}}, {"model": "users.city", "pk": 480, "fields": {"name": "Almeria", "findname": "ALMERIA", "country": "ES", "lon": "-2.45974", "lat": "36.838139"}}, {"model": "users.city", "pk": 481, "fields": {"name": "Adana", "findname": "ADANA", "country": "TR", "lon": "35.328892", "lat": "37.001671"}}, {"model": "users.city", "pk": 482, "fields": {"name": "Utsunomiya-shi", "findname": "UTSUNOMIYA-SHI", "country": "JP", "lon": "139.883606", "lat": "36.56583"}}, {"model": "users.city", "pk": 483, "fields": {"name": "Sanliurfa", "findname": "SANLIURFA", "country": "TR", "lon": "38.793919", "lat": "37.16708"}}, {"model": "users.city", "pk": 484, "fields": {"name": "Jumilla", "findname": "JUMILLA", "country": "ES", "lon": "-1.325", "lat": "38.479172"}}, {"model": "users.city", "pk": 485, "fields": {"name": "Salamanca", "findname": "SALAMANCA", "country": "ES", "lon": "-5.65", "lat": "40.966671"}}, {"model": "users.city", "pk": 486, "fields": {"name": "Skalica", "findname": "SKALICA", "country": "SK", "lon": "17.226351", "lat": "48.844898"}}, {"model": "users.city", "pk": 487, "fields": {"name": "Amberg", "findname": "AMBERG", "country": "DE", "lon": "11.86222", "lat": "49.441391"}}, {"model": "users.city", "pk": 488, "fields": {"name": "Aigio", "findname": "AIGIO", "country": "GR", "lon": "22.08194", "lat": "38.248611"}}, {"model": "users.city", "pk": 489, "fields": {"name": "Torrelavega", "findname": "TORRELAVEGA", "country": "ES", "lon": "-4.04785", "lat": "43.349442"}}, {"model": "users.city", "pk": 490, "fields": {"name": "Wellington", "findname": "WELLINGTON", "country": "GB", "lon": "-2.51667", "lat": "52.700001"}}, {"model": "users.city", "pk": 491, "fields": {"name": "Maghull", "findname": "MAGHULL", "country": "GB", "lon": "-2.94117", "lat": "53.51619"}}, {"model": "users.city", "pk": 492, "fields": {"name": "Zaio", "findname": "ZAIO", "country": "MA", "lon": "-2.7329", "lat": "34.942822"}}, {"model": "users.city", "pk": 493, "fields": {"name": "Bentleigh East", "findname": "BENTLEIGH EAST", "country": "AU", "lon": "145.059875", "lat": "-37.920101"}}, {"model": "users.city", "pk": 494, "fields": {"name": "Godalming", "findname": "GODALMING", "country": "GB", "lon": "-0.61725", "lat": "51.18462"}}, {"model": "users.city", "pk": 495, "fields": {"name": "Churachandpur", "findname": "CHURACHANDPUR", "country": "IN", "lon": "93.666672", "lat": "24.33333"}}, {"model": "users.city", "pk": 496, "fields": {"name": "Vernon", "findname": "VERNON", "country": "CA", "lon": "-119.269051", "lat": "50.258091"}}, {"model": "users.city", "pk": 497, "fields": {"name": "Maglie", "findname": "MAGLIE", "country": "IT", "lon": "18.298929", "lat": "40.11842"}}, {"model": "users.city", "pk": 498, "fields": {"name": "Thun", "findname": "THUN", "country": "CH", "lon": "7.62166", "lat": "46.751179"}}, {"model": "users.city", "pk": 499, "fields": {"name": "Falmouth", "findname": "FALMOUTH", "country": "GB", "lon": "-5.07113", "lat": "50.154411"}}, {"model": "users.city", "pk": 500, "fields": {"name": "Playa del Ingles", "findname": "PLAYA DEL INGLES", "country": "ES", "lon": "-15.5787", "lat": "27.756701"}}, {"model": "users.city", "pk": 501, "fields": {"name": "Christiana", "findname": "CHRISTIANA", "country": "ZA", "lon": "25.16111", "lat": "-27.914021"}}, {"model": "users.city", "pk": 502, "fields": {"name": "Michurinsk", "findname": "MICHURINSK", "country": "RU", "lon": "40.4907", "lat": "52.8978"}}, {"model": "users.city", "pk": 503, "fields": {"name": "Norilsk", "findname": "NORILSK", "country": "RU", "lon": "88.202698", "lat": "69.3535"}}, {"model": "users.city", "pk": 504, "fields": {"name": "Magadan", "findname": "MAGADAN", "country": "RU", "lon": "150.800003", "lat": "59.566669"}}, {"model": "users.city", "pk": 505, "fields": {"name": "Yuzhno-Sakhalinsk", "findname": "YUZHNO-SAKHALINSK", "country": "RU", "lon": "142.733658", "lat": "46.958118"}}, {"model": "users.city", "pk": 506, "fields": {"name": "Kamyshin", "findname": "KAMYSHIN", "country": "RU", "lon": "45.416012", "lat": "50.098331"}}, {"model": "users.city", "pk": 507, "fields": {"name": "Kirov", "findname": "KIROV", "country": "RU", "lon": "49.660069", "lat": "58.596649"}}, {"model": "users.city", "pk": 508, "fields": {"name": "Uitenhage", "findname": "UITENHAGE", "country": "ZA", "lon": "25.3971", "lat": "-33.757568"}}, {"model": "users.city", "pk": 509, "fields": {"name": "Algiers", "findname": "ALGIERS", "country": "DZ", "lon": "3.04197", "lat": "36.752499"}}, {"model": "users.city", "pk": 510, "fields": {"name": "Umtata", "findname": "UMTATA", "country": "ZA", "lon": "28.78443", "lat": "-31.58893"}}, {"model": "users.city", "pk": 511, "fields": {"name": "La Paz", "findname": "LA PAZ", "country": "BO", "lon": "-68.150002", "lat": "-16.5"}}, {"model": "users.city", "pk": 512, "fields": {"name": "Melbourne", "findname": "MELBOURNE", "country": "AU", "lon": "144.963318", "lat": "-37.813999"}}, {"model": "users.city", "pk": 513, "fields": {"name": "Toowoomba", "findname": "TOOWOOMBA", "country": "AU", "lon": "151.966675", "lat": "-27.549999"}}, {"model": "users.city", "pk": 514, "fields": {"name": "Nowra", "findname": "NOWRA", "country": "AU", "lon": "150.600006", "lat": "-34.883331"}}, {"model": "users.city", "pk": 515, "fields": {"name": "Albury", "findname": "ALBURY", "country": "AU", "lon": "146.916672", "lat": "-36.083328"}}, {"model": "users.city", "pk": 516, "fields": {"name": "Wodonga", "findname": "WODONGA", "country": "AU", "lon": "146.883331", "lat": "-36.116669"}}, {"model": "users.city", "pk": 517, "fields": {"name": "Taree", "findname": "TAREE", "country": "AU", "lon": "152.466675", "lat": "-31.9"}}, {"model": "users.city", "pk": 518, "fields": {"name": "Okinawa", "findname": "OKINAWA", "country": "JP", "lon": "127.801392", "lat": "26.335831"}}, {"model": "users.city", "pk": 519, "fields": {"name": "Sakura", "findname": "SAKURA", "country": "JP", "lon": "140.233337", "lat": "35.716671"}}, {"model": "users.city", "pk": 520, "fields": {"name": "Miyazaki-shi", "findname": "MIYAZAKI-SHI", "country": "JP", "lon": "131.423889", "lat": "31.91111"}}, {"model": "users.city", "pk": 521, "fields": {"name": "Fukushima-shi", "findname": "FUKUSHIMA-SHI", "country": "JP", "lon": "140.467773", "lat": "37.75"}}, {"model": "users.city", "pk": 522, "fields": {"name": "Miyoshi", "findname": "MIYOSHI", "country": "JP", "lon": "137.066666", "lat": "35.083328"}}, {"model": "users.city", "pk": 523, "fields": {"name": "Toyama-shi", "findname": "TOYAMA-SHI", "country": "JP", "lon": "137.211395", "lat": "36.695278"}}, {"model": "users.city", "pk": 524, "fields": {"name": "Ogori", "findname": "OGORI", "country": "JP", "lon": "131.399994", "lat": "34.099998"}}, {"model": "users.city", "pk": 525, "fields": {"name": "Hiroshima-shi", "findname": "HIROSHIMA-SHI", "country": "JP", "lon": "132.459366", "lat": "34.396271"}}, {"model": "users.city", "pk": 526, "fields": {"name": "Nakamura", "findname": "NAKAMURA", "country": "JP", "lon": "132.933334", "lat": "32.98333"}}, {"model": "users.city", "pk": 527, "fields": {"name": "Gifu-shi", "findname": "GIFU-SHI", "country": "JP", "lon": "136.760391", "lat": "35.422909"}}, {"model": "users.city", "pk": 528, "fields": {"name": "Otsu-shi", "findname": "OTSU-SHI", "country": "JP", "lon": "135.868332", "lat": "35.00444"}}, {"model": "users.city", "pk": 529, "fields": {"name": "Sapporo-shi", "findname": "SAPPORO-SHI", "country": "JP", "lon": "141.346939", "lat": "43.064171"}}, {"model": "users.city", "pk": 530, "fields": {"name": "Aomori-shi", "findname": "AOMORI-SHI", "country": "JP", "lon": "140.740005", "lat": "40.82444"}}, {"model": "users.city", "pk": 531, "fields": {"name": "Matsue-shi", "findname": "MATSUE-SHI", "country": "JP", "lon": "133.050568", "lat": "35.472221"}}, {"model": "users.city", "pk": 532, "fields": {"name": "Nagasaki-shi", "findname": "NAGASAKI-SHI", "country": "JP", "lon": "129.873611", "lat": "32.74472"}}, {"model": "users.city", "pk": 533, "fields": {"name": "Takamatsu-shi", "findname": "TAKAMATSU-SHI", "country": "JP", "lon": "134.043335", "lat": "34.340279"}}, {"model": "users.city", "pk": 534, "fields": {"name": "Obihiro", "findname": "OBIHIRO", "country": "JP", "lon": "143.204437", "lat": "42.917221"}}, {"model": "users.city", "pk": 535, "fields": {"name": "Nakano", "findname": "NAKANO", "country": "JP", "lon": "138.366669", "lat": "36.75"}}, {"model": "users.city", "pk": 536, "fields": {"name": "Shibata", "findname": "SHIBATA", "country": "JP", "lon": "139.333328", "lat": "37.950001"}}, {"model": "users.city", "pk": 537, "fields": {"name": "Masuda", "findname": "MASUDA", "country": "JP", "lon": "131.850006", "lat": "34.666672"}}, {"model": "users.city", "pk": 538, "fields": {"name": "Tsuyama", "findname": "TSUYAMA", "country": "JP", "lon": "134", "lat": "35.049999"}}, {"model": "users.city", "pk": 539, "fields": {"name": "Tokuyama", "findname": "TOKUYAMA", "country": "JP", "lon": "131.816666", "lat": "34.049999"}}, {"model": "users.city", "pk": 540, "fields": {"name": "Uwajima", "findname": "UWAJIMA", "country": "JP", "lon": "132.560013", "lat": "33.223751"}}, {"model": "users.city", "pk": 541, "fields": {"name": "Kure", "findname": "KURE", "country": "JP", "lon": "132.566666", "lat": "34.23333"}}, {"model": "users.city", "pk": 542, "fields": {"name": "Nagahama", "findname": "NAGAHAMA", "country": "JP", "lon": "136.266663", "lat": "35.383331"}}, {"model": "users.city", "pk": 543, "fields": {"name": "Otaru", "findname": "OTARU", "country": "JP", "lon": "141.002213", "lat": "43.189442"}}, {"model": "users.city", "pk": 544, "fields": {"name": "Toyooka", "findname": "TOYOOKA", "country": "JP", "lon": "134.833328", "lat": "35.533329"}}, {"model": "users.city", "pk": 545, "fields": {"name": "Kikuchi", "findname": "KIKUCHI", "country": "JP", "lon": "130.816666", "lat": "32.98333"}}, {"model": "users.city", "pk": 546, "fields": {"name": "Hikari", "findname": "HIKARI", "country": "JP", "lon": "131.949997", "lat": "33.955002"}}, {"model": "users.city", "pk": 547, "fields": {"name": "Kashiwazaki", "findname": "KASHIWAZAKI", "country": "JP", "lon": "138.550003", "lat": "37.366669"}}, {"model": "users.city", "pk": 548, "fields": {"name": "Mombetsu", "findname": "MOMBETSU", "country": "JP", "lon": "143.352493", "lat": "44.352501"}}, {"model": "users.city", "pk": 549, "fields": {"name": "Tateyama", "findname": "TATEYAMA", "country": "JP", "lon": "139.866669", "lat": "34.98333"}}, {"model": "users.city", "pk": 550, "fields": {"name": "Enzan", "findname": "ENZAN", "country": "JP", "lon": "138.733337", "lat": "35.700001"}}, {"model": "users.city", "pk": 551, "fields": {"name": "Togane", "findname": "TOGANE", "country": "JP", "lon": "140.366669", "lat": "35.549999"}}, {"model": "users.city", "pk": 552, "fields": {"name": "Hanyu", "findname": "HANYU", "country": "JP", "lon": "139.533325", "lat": "36.166672"}}, {"model": "users.city", "pk": 553, "fields": {"name": "Tanabe", "findname": "TANABE", "country": "JP", "lon": "135.366669", "lat": "33.73333"}}, {"model": "users.city", "pk": 554, "fields": {"name": "Ojiya", "findname": "OJIYA", "country": "JP", "lon": "138.800003", "lat": "37.299999"}}, {"model": "users.city", "pk": 555, "fields": {"name": "Iwakura", "findname": "IWAKURA", "country": "JP", "lon": "136.866669", "lat": "35.283329"}}, {"model": "users.city", "pk": 556, "fields": {"name": "Otake", "findname": "OTAKE", "country": "JP", "lon": "132.216675", "lat": "34.200001"}}, {"model": "users.city", "pk": 557, "fields": {"name": "Yokote", "findname": "YOKOTE", "country": "JP", "lon": "140.566666", "lat": "39.299999"}}, {"model": "users.city", "pk": 558, "fields": {"name": "Nayoro", "findname": "NAYORO", "country": "JP", "lon": "142.457779", "lat": "44.350559"}}, {"model": "users.city", "pk": 559, "fields": {"name": "Murakami", "findname": "MURAKAMI", "country": "JP", "lon": "139.483337", "lat": "38.23333"}}, {"model": "users.city", "pk": 560, "fields": {"name": "Kameoka", "findname": "KAMEOKA", "country": "JP", "lon": "135.583328", "lat": "35"}}, {"model": "users.city", "pk": 561, "fields": {"name": "Sabae", "findname": "SABAE", "country": "JP", "lon": "136.184982", "lat": "35.946468"}}, {"model": "users.city", "pk": 562, "fields": {"name": "Kakuda", "findname": "KAKUDA", "country": "JP", "lon": "140.783325", "lat": "37.966671"}}, {"model": "users.city", "pk": 563, "fields": {"name": "Uozu", "findname": "UOZU", "country": "JP", "lon": "137.399994", "lat": "36.799999"}}, {"model": "users.city", "pk": 564, "fields": {"name": "Iiyama", "findname": "IIYAMA", "country": "JP", "lon": "138.366669", "lat": "36.849998"}}, {"model": "users.city", "pk": 565, "fields": {"name": "Fukuyama", "findname": "FUKUYAMA", "country": "JP", "lon": "133.366669", "lat": "34.48333"}}, {"model": "users.city", "pk": 566, "fields": {"name": "Takayama", "findname": "TAKAYAMA", "country": "JP", "lon": "137.25", "lat": "36.133331"}}, {"model": "users.city", "pk": 567, "fields": {"name": "Toyokawa", "findname": "TOYOKAWA", "country": "JP", "lon": "137.399994", "lat": "34.816669"}}, {"model": "users.city", "pk": 568, "fields": {"name": "Saiki", "findname": "SAIKI", "country": "JP", "lon": "131.899994", "lat": "32.950001"}}, {"model": "users.city", "pk": 569, "fields": {"name": "Shobara", "findname": "SHOBARA", "country": "JP", "lon": "133.016663", "lat": "34.849998"}}, {"model": "users.city", "pk": 570, "fields": {"name": "Mitake", "findname": "MITAKE", "country": "JP", "lon": "137.133331", "lat": "35.416672"}}, {"model": "users.city", "pk": 571, "fields": {"name": "Kusatsu", "findname": "KUSATSU", "country": "JP", "lon": "135.966675", "lat": "35.01667"}}, {"model": "users.city", "pk": 572, "fields": {"name": "Fukuchiyama", "findname": "FUKUCHIYAMA", "country": "JP", "lon": "135.116669", "lat": "35.299999"}}, {"model": "users.city", "pk": 573, "fields": {"name": "Tarumizu", "findname": "TARUMIZU", "country": "JP", "lon": "130.699997", "lat": "31.48333"}}, {"model": "users.city", "pk": 574, "fields": {"name": "Tokamachi", "findname": "TOKAMACHI", "country": "JP", "lon": "138.766663", "lat": "37.133331"}}, {"model": "users.city", "pk": 575, "fields": {"name": "Nirasaki", "findname": "NIRASAKI", "country": "JP", "lon": "138.449997", "lat": "35.700001"}}, {"model": "users.city", "pk": 576, "fields": {"name": "Sanjo", "findname": "SANJO", "country": "JP", "lon": "138.949997", "lat": "37.616669"}}, {"model": "users.city", "pk": 577, "fields": {"name": "Obita", "findname": "OBITA", "country": "JP", "lon": "129.883331", "lat": "32.816669"}}, {"model": "users.city", "pk": 578, "fields": {"name": "Ono", "findname": "ONO", "country": "JP", "lon": "134.933334", "lat": "34.849998"}}, {"model": "users.city", "pk": 579, "fields": {"name": "Obanazawa", "findname": "OBANAZAWA", "country": "JP", "lon": "140.401947", "lat": "38.603329"}}, {"model": "users.city", "pk": 580, "fields": {"name": "Otawara", "findname": "OTAWARA", "country": "JP", "lon": "140.033325", "lat": "36.866669"}}, {"model": "users.city", "pk": 581, "fields": {"name": "Yamaga", "findname": "YAMAGA", "country": "JP", "lon": "130.683334", "lat": "33.01667"}}, {"model": "users.city", "pk": 582, "fields": {"name": "Iyo", "findname": "IYO", "country": "JP", "lon": "132.701385", "lat": "33.751389"}}, {"model": "users.city", "pk": 583, "fields": {"name": "Ozu", "findname": "OZU", "country": "JP", "lon": "132.550003", "lat": "33.5"}}, {"model": "users.city", "pk": 584, "fields": {"name": "Belgaum", "findname": "BELGAUM", "country": "IN", "lon": "74.5", "lat": "15.86667"}}, {"model": "users.city", "pk": 585, "fields": {"name": "Hubli", "findname": "HUBLI", "country": "IN", "lon": "75.166672", "lat": "15.35"}}, {"model": "users.city", "pk": 586, "fields": {"name": "Port Blair", "findname": "PORT BLAIR", "country": "IN", "lon": "92.75", "lat": "11.66667"}}, {"model": "users.city", "pk": 587, "fields": {"name": "Tezpur", "findname": "TEZPUR", "country": "IN", "lon": "92.800003", "lat": "26.633329"}}, {"model": "users.city", "pk": 588, "fields": {"name": "Clermont-Ferrand", "findname": "CLERMONT-FERRAND", "country": "FR", "lon": "3.08628", "lat": "45.779659"}}, {"model": "users.city", "pk": 589, "fields": {"name": "Le Mans", "findname": "LE MANS", "country": "FR", "lon": "0.2", "lat": "48"}}, {"model": "users.city", "pk": 590, "fields": {"name": "Chamalieres", "findname": "CHAMALIERES", "country": "FR", "lon": "3.0631", "lat": "45.775589"}}, {"model": "users.city", "pk": 591, "fields": {"name": "La Seyne-sur-Mer", "findname": "LA SEYNE-SUR-MER", "country": "FR", "lon": "5.88472", "lat": "43.098179"}}, {"model": "users.city", "pk": 592, "fields": {"name": "Crepy-en-Valois", "findname": "CREPY-EN-VALOIS", "country": "FR", "lon": "2.88807", "lat": "49.233589"}}, {"model": "users.city", "pk": 593, "fields": {"name": "Uzice", "findname": "UZICE", "country": "RS", "lon": "19.84878", "lat": "43.858608"}}, {"model": "users.city", "pk": 594, "fields": {"name": "Napoli", "findname": "NAPOLI", "country": "IT", "lon": "14.25", "lat": "40.833328"}}, {"model": "users.city", "pk": 595, "fields": {"name": "Salerno", "findname": "SALERNO", "country": "IT", "lon": "14.76599", "lat": "40.677971"}}, {"model": "users.city", "pk": 596, "fields": {"name": "Pisticci", "findname": "PISTICCI", "country": "IT", "lon": "16.556789", "lat": "40.390621"}}, {"model": "users.city", "pk": 597, "fields": {"name": "Alcamo", "findname": "ALCAMO", "country": "IT", "lon": "12.95654", "lat": "37.998348"}}, {"model": "users.city", "pk": 598, "fields": {"name": "Licata", "findname": "LICATA", "country": "IT", "lon": "13.94607", "lat": "37.10714"}}, {"model": "users.city", "pk": 599, "fields": {"name": "Manduria", "findname": "MANDURIA", "country": "IT", "lon": "17.633511", "lat": "40.401821"}}, {"model": "users.city", "pk": 600, "fields": {"name": "Crotone", "findname": "CROTONE", "country": "IT", "lon": "17.117809", "lat": "39.085098"}}, {"model": "users.city", "pk": 601, "fields": {"name": "Ferentino", "findname": "FERENTINO", "country": "IT", "lon": "13.2564", "lat": "41.69532"}}, {"model": "users.city", "pk": 602, "fields": {"name": "Chieti", "findname": "CHIETI", "country": "IT", "lon": "14.13801", "lat": "42.360939"}}, {"model": "users.city", "pk": 603, "fields": {"name": "Spoleto", "findname": "SPOLETO", "country": "IT", "lon": "12.73737", "lat": "42.744839"}}, {"model": "users.city", "pk": 604, "fields": {"name": "Sarzana", "findname": "SARZANA", "country": "IT", "lon": "9.95859", "lat": "44.11145"}}, {"model": "users.city", "pk": 605, "fields": {"name": "Bitonto", "findname": "BITONTO", "country": "IT", "lon": "16.689381", "lat": "41.110828"}}, {"model": "users.city", "pk": 606, "fields": {"name": "Monreale", "findname": "MONREALE", "country": "IT", "lon": "13.28854", "lat": "38.080051"}}, {"model": "users.city", "pk": 607, "fields": {"name": "Corigliano Calabro", "findname": "CORIGLIANO CALABRO", "country": "IT", "lon": "16.5177", "lat": "39.595001"}}, {"model": "users.city", "pk": 608, "fields": {"name": "Rieti", "findname": "RIETI", "country": "IT", "lon": "12.85918", "lat": "42.40723"}}, {"model": "users.city", "pk": 609, "fields": {"name": "Todi", "findname": "TODI", "country": "IT", "lon": "12.40456", "lat": "42.779942"}}, {"model": "users.city", "pk": 610, "fields": {"name": "Corato", "findname": "CORATO", "country": "IT", "lon": "16.41387", "lat": "41.145531"}}, {"model": "users.city", "pk": 611, "fields": {"name": "Nardo", "findname": "NARDO", "country": "IT", "lon": "18.02972", "lat": "40.175121"}}, {"model": "users.city", "pk": 612, "fields": {"name": "Noci", "findname": "NOCI", "country": "IT", "lon": "17.131701", "lat": "40.79073"}}, {"model": "users.city", "pk": 613, "fields": {"name": "Siderno", "findname": "SIDERNO", "country": "IT", "lon": "16.302", "lat": "38.277882"}}, {"model": "users.city", "pk": 614, "fields": {"name": "Noto", "findname": "NOTO", "country": "IT", "lon": "15.06929", "lat": "36.890141"}}, {"model": "users.city", "pk": 615, "fields": {"name": "San Benedetto del Tronto", "findname": "SAN BENEDETTO DEL TRONTO", "country": "IT", "lon": "13.88157", "lat": "42.945621"}}, {"model": "users.city", "pk": 616, "fields": {"name": "Nykoping", "findname": "NYKOPING", "country": "SE", "lon": "17.007879", "lat": "58.752998"}}, {"model": "users.city", "pk": 617, "fields": {"name": "Umea", "findname": "UMEA", "country": "SE", "lon": "20.25972", "lat": "63.828419"}}, {"model": "users.city", "pk": 618, "fields": {"name": "Patra", "findname": "PATRA", "country": "GR", "lon": "21.73444", "lat": "38.244438"}}, {"model": "users.city", "pk": 619, "fields": {"name": "Llanelli", "findname": "LLANELLI", "country": "GB", "lon": "-4.16191", "lat": "51.68195"}}, {"model": "users.city", "pk": 620, "fields": {"name": "Belfast", "findname": "BELFAST", "country": "GB", "lon": "-5.93333", "lat": "54.583328"}}, {"model": "users.city", "pk": 621, "fields": {"name": "Newton Abbot", "findname": "NEWTON ABBOT", "country": "GB", "lon": "-3.61186", "lat": "50.52858"}}, {"model": "users.city", "pk": 622, "fields": {"name": "Coleraine", "findname": "COLERAINE", "country": "GB", "lon": "-6.66667", "lat": "55.133331"}}, {"model": "users.city", "pk": 623, "fields": {"name": "Carmarthen", "findname": "CARMARTHEN", "country": "GB", "lon": "-4.30535", "lat": "51.855518"}}, {"model": "users.city", "pk": 624, "fields": {"name": "Truro", "findname": "TRURO", "country": "GB", "lon": "-5.05436", "lat": "50.265259"}}, {"model": "users.city", "pk": 625, "fields": {"name": "Hamilton", "findname": "HAMILTON", "country": "GB", "lon": "-4.03333", "lat": "55.76667"}}, {"model": "users.city", "pk": 626, "fields": {"name": "Bedlington", "findname": "BEDLINGTON", "country": "GB", "lon": "-1.59319", "lat": "55.130611"}}, {"model": "users.city", "pk": 627, "fields": {"name": "Penzance", "findname": "PENZANCE", "country": "GB", "lon": "-5.53715", "lat": "50.11861"}}, {"model": "users.city", "pk": 628, "fields": {"name": "Omagh", "findname": "OMAGH", "country": "GB", "lon": "-7.3", "lat": "54.599998"}}, {"model": "users.city", "pk": 629, "fields": {"name": "Long Eaton", "findname": "LONG EATON", "country": "GB", "lon": "-1.27136", "lat": "52.898548"}}, {"model": "users.city", "pk": 630, "fields": {"name": "Redcar", "findname": "REDCAR", "country": "GB", "lon": "-1.05999", "lat": "54.61657"}}, {"model": "users.city", "pk": 631, "fields": {"name": "Folkestone", "findname": "FOLKESTONE", "country": "GB", "lon": "1.18333", "lat": "51.083328"}}, {"model": "users.city", "pk": 632, "fields": {"name": "Bathgate", "findname": "BATHGATE", "country": "GB", "lon": "-3.64398", "lat": "55.902039"}}, {"model": "users.city", "pk": 633, "fields": {"name": "Saskatoon", "findname": "SASKATOON", "country": "CA", "lon": "-106.634521", "lat": "52.116791"}}, {"model": "users.city", "pk": 634, "fields": {"name": "Sherbrooke", "findname": "SHERBROOKE", "country": "CA", "lon": "-71.899078", "lat": "45.400082"}}, {"model": "users.city", "pk": 635, "fields": {"name": "Saint John", "findname": "SAINT JOHN", "country": "CA", "lon": "-66.067657", "lat": "45.272709"}}, {"model": "users.city", "pk": 636, "fields": {"name": "Orillia", "findname": "ORILLIA", "country": "CA", "lon": "-79.420677", "lat": "44.608681"}}, {"model": "users.city", "pk": 637, "fields": {"name": "Collingwood", "findname": "COLLINGWOOD", "country": "CA", "lon": "-80.216377", "lat": "44.483398"}}, {"model": "users.city", "pk": 638, "fields": {"name": "Fort McMurray", "findname": "FORT MCMURRAY", "country": "CA", "lon": "-111.381027", "lat": "56.726761"}}, {"model": "users.city", "pk": 639, "fields": {"name": "Sarnia", "findname": "SARNIA", "country": "CA", "lon": "-82.404068", "lat": "42.978661"}}, {"model": "users.city", "pk": 640, "fields": {"name": "North Bay", "findname": "NORTH BAY", "country": "CA", "lon": "-79.466331", "lat": "46.316799"}}, {"model": "users.city", "pk": 641, "fields": {"name": "Whitehorse", "findname": "WHITEHORSE", "country": "CA", "lon": "-135.053757", "lat": "60.71611"}}, {"model": "users.city", "pk": 642, "fields": {"name": "Magog", "findname": "MAGOG", "country": "CA", "lon": "-72.149094", "lat": "45.266781"}}, {"model": "users.city", "pk": 643, "fields": {"name": "Brockville", "findname": "BROCKVILLE", "country": "CA", "lon": "-75.68264", "lat": "44.583408"}}, {"model": "users.city", "pk": 644, "fields": {"name": "Greater Napanee", "findname": "GREATER NAPANEE", "country": "CA", "lon": "-76.94944", "lat": "44.250118"}}, {"model": "users.city", "pk": 645, "fields": {"name": "New Glasgow", "findname": "NEW GLASGOW", "country": "CA", "lon": "-62.648628", "lat": "45.583439"}}, {"model": "users.city", "pk": 646, "fields": {"name": "Ensenada", "findname": "ENSENADA", "country": "MX", "lon": "-116.616669", "lat": "31.866671"}}, {"model": "users.city", "pk": 647, "fields": {"name": "El Pueblito", "findname": "EL PUEBLITO", "country": "MX", "lon": "-100.449997", "lat": "20.533331"}}, {"model": "users.city", "pk": 648, "fields": {"name": "Piedras Negras", "findname": "PIEDRAS NEGRAS", "country": "MX", "lon": "-100.51667", "lat": "28.700001"}}, {"model": "users.city", "pk": 649, "fields": {"name": "Campeche", "findname": "CAMPECHE", "country": "MX", "lon": "-90.533333", "lat": "19.85"}}, {"model": "users.city", "pk": 650, "fields": {"name": "Leon", "findname": "LEON", "country": "MX", "lon": "-101.666672", "lat": "21.116671"}}, {"model": "users.city", "pk": 651, "fields": {"name": "Monclova", "findname": "MONCLOVA", "country": "MX", "lon": "-101.416672", "lat": "26.9"}}, {"model": "users.city", "pk": 652, "fields": {"name": "Cholula", "findname": "CHOLULA", "country": "MX", "lon": "-98.30352", "lat": "19.06406"}}, {"model": "users.city", "pk": 653, "fields": {"name": "Salamanca", "findname": "SALAMANCA", "country": "MX", "lon": "-101.199997", "lat": "20.566669"}}, {"model": "users.city", "pk": 654, "fields": {"name": "Torreon", "findname": "TORREON", "country": "MX", "lon": "-103.433327", "lat": "25.549999"}}, {"model": "users.city", "pk": 655, "fields": {"name": "Culiacan", "findname": "CULIACAN", "country": "MX", "lon": "-107.389717", "lat": "24.79944"}}, {"model": "users.city", "pk": 656, "fields": {"name": "Valladolid", "findname": "VALLADOLID", "country": "MX", "lon": "-88.199364", "lat": "20.68812"}}, {"model": "users.city", "pk": 657, "fields": {"name": "Tulancingo", "findname": "TULANCINGO", "country": "MX", "lon": "-98.366669", "lat": "20.08333"}}, {"model": "users.city", "pk": 658, "fields": {"name": "Tepeaca", "findname": "TEPEACA", "country": "MX", "lon": "-97.900002", "lat": "18.966669"}}, {"model": "users.city", "pk": 659, "fields": {"name": "Ciudad Camargo", "findname": "CIUDAD CAMARGO", "country": "MX", "lon": "-105.166672", "lat": "27.66667"}}, {"model": "users.city", "pk": 660, "fields": {"name": "Luebeck", "findname": "LUEBECK", "country": "DE", "lon": "10.68729", "lat": "53.868931"}}, {"model": "users.city", "pk": 661, "fields": {"name": "Schneverdingen", "findname": "SCHNEVERDINGEN", "country": "DE", "lon": "9.8", "lat": "53.116669"}}, {"model": "users.city", "pk": 662, "fields": {"name": "Bremen", "findname": "BREMEN", "country": "DE", "lon": "8.80777", "lat": "53.075161"}}, {"model": "users.city", "pk": 663, "fields": {"name": "Ingolstadt", "findname": "INGOLSTADT", "country": "DE", "lon": "11.43333", "lat": "48.76667"}}, {"model": "users.city", "pk": 664, "fields": {"name": "Wismar", "findname": "WISMAR", "country": "DE", "lon": "11.46667", "lat": "53.900002"}}, {"model": "users.city", "pk": 665, "fields": {"name": "Erfurt", "findname": "ERFURT", "country": "DE", "lon": "11.03333", "lat": "50.98333"}}, {"model": "users.city", "pk": 666, "fields": {"name": "Delmenhorst", "findname": "DELMENHORST", "country": "DE", "lon": "8.61667", "lat": "53.049999"}}, {"model": "users.city", "pk": 667, "fields": {"name": "Wolfsburg", "findname": "WOLFSBURG", "country": "DE", "lon": "10.8", "lat": "52.433331"}}, {"model": "users.city", "pk": 668, "fields": {"name": "Lauda-Konigshofen", "findname": "LAUDA-KONIGSHOFEN", "country": "DE", "lon": "9.70417", "lat": "49.565281"}}, {"model": "users.city", "pk": 669, "fields": {"name": "Nienburg", "findname": "NIENBURG", "country": "DE", "lon": "9.21667", "lat": "52.633331"}}, {"model": "users.city", "pk": 670, "fields": {"name": "Burg bei Magdeburg", "findname": "BURG BEI MAGDEBURG", "country": "DE", "lon": "11.85493", "lat": "52.271519"}}, {"model": "users.city", "pk": 671, "fields": {"name": "Jena", "findname": "JENA", "country": "DE", "lon": "11.58333", "lat": "50.933331"}}, {"model": "users.city", "pk": 672, "fields": {"name": "Heidenheim an der Brenz", "findname": "HEIDENHEIM AN DER BRENZ", "country": "DE", "lon": "10.15162", "lat": "48.677979"}}, {"model": "users.city", "pk": 673, "fields": {"name": "Bitterfeld", "findname": "BITTERFELD", "country": "DE", "lon": "12.31667", "lat": "51.616669"}}, {"model": "users.city", "pk": 674, "fields": {"name": "Deggendorf", "findname": "DEGGENDORF", "country": "DE", "lon": "12.96667", "lat": "48.833328"}}, {"model": "users.city", "pk": 675, "fields": {"name": "Gotha", "findname": "GOTHA", "country": "DE", "lon": "10.70193", "lat": "50.948231"}}, {"model": "users.city", "pk": 676, "fields": {"name": "Aalen", "findname": "AALEN", "country": "DE", "lon": "10.0933", "lat": "48.837769"}},